id_programme,adresse,code_postal,ville,annee,nb_logements_total,nb_logements_plai,nb_logements_plus,nb_logements_pluscd,nb_logements_pls,mode_realisation,arrondissement,nature_programme,code_arrondissement,latitude,longitude
2000084,3-5 RUE DES HAUDRIETTES,75003,Paris,2001,47,0,47,0,0,acquisition conventionnement,3,logement familial,75003,48.86143522015643,2.35774380611487
2000004,"60, RUE NOTRE DAME DE NAZARETH",75003,Paris,2001,27,27,0,0,0,acquisition réhabilitation,3,logement familial,75003,48.86768209011518,2.3571193024536106
2000060,"80, BD DE SEBASTOPOL",75003,Paris,2001,11,11,0,0,0,acquisition réhabilitation,3,logement familial,75003,48.86518380985198,2.352176157275691
2000001,"12, RUE DE L'ABBE GREGOIRE",75006,Paris,2001,6,0,0,0,6,construction neuve,6,résidence pour personnes âgées,75006,48.84907376955985,2.3239855353866754
2000058,"48, RUE SAINT ANDRE DES ARTS",75006,Paris,2001,5,0,5,0,0,acquisition réhabilitation,6,logement familial,75006,48.85344278997235,2.340742187411379
2000041,"17, RUE DE SEINE",75006,Paris,2001,6,0,6,0,0,acquisition réhabilitation,6,logement familial,75006,48.85657645965999,2.336669170368689
2000014,"63-67, RUE DE ROME",75008,Paris,2001,52,31,21,0,0,acquisition réhabilitation,8,logement familial,75008,48.88008606995543,2.321376921494401
2000015,13 RUE DE MIROMESNIL,75008,Paris,2001,18,18,0,0,0,acquisition réhabilitation,8,logement familial,75008,48.87206827974714,2.315964378503338
2000085,29 RUE CAMBACERES,75008,Paris,2001,14,0,14,0,0,acquisition conventionnement,8,logement familial,75008,48.87382490022815,2.31762880030886
2000037,147 RUE DU FAUBOURG POISSONNIERE,75009,Paris,2001,1,1,0,0,0,acquisition réhabilitation,9,logement familial,75009,48.879860390318605,2.3494848973482263
2000023,"71, RUE DE DUNKERQUE",75009,Paris,2001,1,1,0,0,0,acquisition réhabilitation,9,logement familial,75009,48.88166046967541,2.347579023363948
2000013,"41, RUE DE TREVISE",75009,Paris,2001,24,24,0,0,0,acquisition réhabilitation,9,logement familial,75009,48.87529893987116,2.3453850294563496
2000043,29 RUE BERGERE,75009,Paris,2001,18,18,0,0,0,acquisition réhabilitation,9,logement familial,75009,48.87248232018875,2.344188287525032
2000048,31 QUAI DE VALMY,75010,Paris,2001,28,0,22,0,6,acquisition conventionnement,10,logement familial,75010,48.86880747974437,2.366804047083707
2000012,"126, BD MAGENTA , 29-31 RUE DE DUNKERQUE (RS)",75010,Paris,2001,94,94,0,0,0,acquisition réhabilitation,10,résidence sociale pour démunis,75010,48.88017170973908,2.352827060602091
2000082,1 A 5 RUE DEMARQUAY,75010,Paris,2001,59,0,59,0,0,acquisition conventionnement,10,logement familial,75010,48.88072505001713,2.359860219417416
2000061,"226, RUE DU FAUBOURG SAINT DENIS",75010,Paris,2001,3,3,0,0,0,acquisition réhabilitation,10,logement familial,75010,48.88371484002899,2.359400215087427
2000005,"34/36 RUE LEON FROT, 137 RUE DE CHARONNE, 4 RUE E. LEPEU",75011,Paris,2001,5,0,5,0,0,acquisition réhabilitation,11,logement familial,75011,48.85521974015515,2.3871336614539893
2000039,"96, RUE AMELOT",75011,Paris,2001,18,0,18,0,0,acquisition conventionnement,11,logement familial,75011,48.86185875967185,2.36762971011536
2000008,LOTS A ET B  49-51 LEON FROT (ATELIERS),75011,Paris,2001,3,0,3,0,0,construction neuve,11,logement familial,75011,48.88964300981437,2.353268742452375
2000002,2 BIS RUE MONT LOUIS ET 30 RUE DE LA FOLIE REGNAULT,75011,Paris,2001,13,13,0,0,0,acquisition réhabilitation,11,résidence sociale pour démunis,75011,48.858033800056766,2.3878313964794904
2000038,"4 RUE MONT  LOUIS  2, IMPASSE DE MONT-LOUIS",75011,Paris,2001,9,0,9,0,0,acquisition réhabilitation,11,logement familial,75011,48.85789327016752,2.3881970465654563
2000006,"34-36, RUE LEON FROT, 137 BIS, RUE DE CHARONNE, 4, RUE E.LEPEU",75011,Paris,2001,15,0,15,0,0,construction neuve,11,logement familial,75011,48.85522230018403,2.3871525441724497
2000011,16-20 RUE DES MEUNIERS,75012,Paris,2001,62,0,62,0,0,acquisition conventionnement,12,logement familial,75012,48.83399817959342,2.398175442412243
2000077,"1-19 RUE VILLOT, 30-40 QUAI DE LA RAPEE LOT 1",75012,Paris,2001,39,0,39,0,0,construction neuve,12,logement familial,75012,48.89919232024828,2.381381677402077
2000065,2 PASSAGE HENNEL 136 A 142 RUE DE CHARENTON,75012,Paris,2001,7,0,7,0,0,construction neuve,12,logement familial,75012,48.84548584034968,2.380294880536369
2000074,"2, PASSAGE HENNEL 136 A 142, RUE DE CHARENTON",75012,Paris,2001,34,0,34,0,0,acquisition réhabilitation,12,logement familial,75012,48.84548584034968,2.380294880536369
2000068,18-20 RUE MOUSSET ROBERT,75012,Paris,2001,14,0,14,0,0,acquisition réhabilitation,12,logement familial,75012,48.84316923981125,2.403939257410221
2000075,"254, RUE DU FAUBOURG SAINT ANTOINE, 105-119 BD DIDEROT (E. NAPOLEON)",75012,Paris,2001,82,0,82,0,0,acquisition réhabilitation,12,résidence étudiante,75012,48.84897440010339,2.3909879240664704
2000080,"1-19 RUE VILLIOT, 30-40 QUAI DE LA RAPEE LOT 2",75012,Paris,2001,64,0,64,0,0,construction neuve,12,logement familial,75012,48.89919232024828,2.381381677402077
2000046,"18, RUE DE PICPUS (RS)",75012,Paris,2001,11,11,0,0,0,construction neuve,12,résidence sociale pour démunis,75012,48.84643268016095,2.394202311358082
2000025,"1-7 ET 4-10, IMPASSE DRUINOT - 41, RUE DE CITEAUX",75012,Paris,2001,18,0,18,0,0,acquisition réhabilitation,12,logement familial,75012,48.849788729771504,2.380965061073377
2000034,"18, RUE PICPUS",75012,Paris,2001,12,12,0,0,0,acquisition réhabilitation,12,logement familial,75012,48.84643268016095,2.394202311358082
2000051,73 RUE DE WATTIGNIES,75012,Paris,2001,24,0,0,0,24,acquisition conventionnement,12,logement familial,75012,48.83506258024877,2.3995341265587298
2000032,"26 ET 25-29, PASSAGE STINVILLE - 29-33 BIS, RUE MONTGALLET",75012,Paris,2001,45,0,45,0,0,construction neuve,12,logement familial,75012,48.84402340014564,2.3887060759758216
2000078,111 RUE BOBILLOT,75013,Paris,2001,20,0,0,0,20,acquisition conventionnement,13,logement familial,75013,48.82354105956774,2.3482457815836937
2000033,"ZAC PRG LOT M7- 42-56, RUE DU CHEVALERET -  44-48 RUE THOMAS MANN",75013,Paris,2001,78,0,78,0,0,construction neuve,13,logement familial,75013,48.82867662006963,2.376550238638754
2000017,47 RUE DU JAVELOT,75013,Paris,2001,2,0,2,0,0,construction neuve,13,logement familial,75013,48.824747170385486,2.3652825355837583
2000054,13 RUE GANDON,75013,Paris,2001,103,0,103,0,0,acquisition conventionnement,13,résidence étudiante,75013,48.82162424013799,2.360860060404793
2000055,13 RUE GANDON,75013,Paris,2001,99,0,39,0,60,acquisition conventionnement,13,logement familial,75013,48.82162424013799,2.360860060404793
2000056,205-213 BD VINCENT AURIOL,75013,Paris,2001,163,0,163,0,0,acquisition conventionnement,13,résidence étudiante,75013,48.831081300065215,2.3576097091177366
2000067,ZAC CHATEAU DES RENTIERS - 58-60 RUE DU CHATEAU DES RENTIERS - LOT D2,75013,Paris,2001,35,0,0,0,35,construction neuve,13,logement familial,75013,48.82577299015205,2.3694983703019665
2000062,19 RUE DES PLANTES,75014,Paris,2001,38,0,15,0,23,acquisition conventionnement,14,logement familial,75014,48.83049983027532,2.323745673173053
2000052,139 RUE DE L'OUEST,75014,Paris,2001,192,0,96,0,96,acquisition conventionnement,14,logement familial,75014,48.83255870963124,2.313483783635512
2000036,"8-10, RUE JEAN DOLENT  (RS POUR APPRENTIS)",75014,Paris,2001,64,64,0,0,0,acquisition réhabilitation,14,foyer pour jeunes travailleurs ou résidence pour jeunes actifs,75014,48.83394293997084,2.337571937558535
2000071,"15-17, RUE DE L'EGLISE 101-101 TER, RUE SAINT CHARLES",75015,Paris,2001,18,18,0,0,0,construction neuve,15,logement familial,75015,48.84517205042952,2.285676146237858
2000063,70 RUE GUTENBERG,75015,Paris,2001,17,0,7,0,10,acquisition conventionnement,15,logement familial,75015,48.84147289968994,2.2786887362400323
2000021,"114, RUE DE L'ABBE GROULT",75015,Paris,2001,2,2,0,0,0,acquisition réhabilitation,15,logement familial,75015,48.83693225035609,2.3004003195033293
2000040,"AQUABOULEVARD -22-24, RUE DU COLONEL AVIA ( APHP)",75015,Paris,2001,44,0,44,0,0,construction neuve,15,logement familial,75015,48.82989329021376,2.275532547305658
2000083,55-59-63 RUE BALARD,75015,Paris,2001,83,0,74,0,9,acquisition conventionnement,15,logement familial,75015,48.84144296007872,2.277960406529244
2000016,104-106 RUE DE CAMBRONNE,75015,Paris,2001,32,0,32,0,0,acquisition conventionnement,15,logement familial,75015,48.84099255989485,2.3037041424262608
2000022,4 RUE DE LA QUINTINIE 20 RUE DE LA PROCESSION,75015,Paris,2001,35,4,31,0,0,construction neuve,15,logement familial,75015,48.83905411015439,2.3060062930974743
2000045,"137, RUE DE VAUGIRARD",75015,Paris,2001,20,10,10,0,0,acquisition réhabilitation,15,logement familial,75015,48.84426941996957,2.317271918593274
2000064,2-4 VILLA GARNIER,75015,Paris,2001,91,0,33,0,58,acquisition conventionnement,15,logement familial,75015,48.87150826027073,2.330706077628804
2000010,"16,RUE CAMULOGENE-7,RUE CHAUVELOT-11,RUE MONTEBELLO",75015,Paris,2001,7,7,0,0,0,construction neuve,15,logement familial,75015,48.82927570976431,2.302603947426846
2000007,"11, RUE CHANEZ 20, RUE ERLANGER",75016,Paris,2001,310,0,211,0,99,acquisition conventionnement,16,logement familial,75016,48.84698248957879,2.25979905145772
2000070,PORTE D'ASNIERES LOT E1 - 2-4 RUE MARGUERITE LONG,75017,Paris,2001,25,0,25,0,0,construction neuve,17,logement familial,75017,48.8909658202591,2.304824970480072
2000076,184 AVENUE DE CLICHY (RS),75017,Paris,2001,24,24,0,0,0,acquisition réhabilitation,17,résidence sociale pour démunis,75017,48.89300944968649,2.316242093653857
2000050,129 BD NEY,75018,Paris,2001,69,0,0,0,69,acquisition conventionnement,18,logement familial,75018,48.897518229885534,2.332907408634484
2000018,32 RUE ORDENER (RS),75018,Paris,2001,41,41,0,0,0,acquisition réhabilitation,18,résidence sociale pour démunis,75018,48.89139710960038,2.351029674672818
2000026,"29-31, RUE MYRHA",75018,Paris,2001,12,0,12,0,0,construction neuve,18,logement familial,75018,48.887098690000585,2.353927875401381
2000049,17 RUE ANGELIQUE COMPOINT (DP),75018,Paris,2001,21,0,0,0,21,construction neuve,18,logement familial,75018,48.89743701008547,2.3348326605624097
2000009,49 RUE DE LA CHAPELLE (RS),75018,Paris,2001,21,21,0,0,0,acquisition réhabilitation,18,résidence sociale pour démunis,75018,48.89417378024506,2.3591499353866427
2000028,90 BD DE LA CHAPELLE 29 RUE CHARBONNIERE,75018,Paris,2001,6,0,6,0,0,construction neuve,18,logement familial,75018,48.884213899547184,2.3533469673677816
2000057,"IMPASSE ROBERT - LOT 3 - 6, IMP GROSSE BOUTEILLE",75018,Paris,2001,16,0,16,0,0,construction neuve,18,logement familial,75018,48.89506455008156,2.3395800621835945
2000027,"33-37 RUE DE LA CHARBONNIERE, 94-98 BD DE LA CHAPELLE",75018,Paris,2001,18,0,18,0,0,construction neuve,18,logement familial,75018,48.88430787972919,2.3530234142680837
2000024,"40, RUE CAVE - 30-32, RUE DES GARDES",75018,Paris,2001,7,0,7,0,0,construction neuve,18,logement familial,75018,48.88667364973254,2.352886413478314
2000035,25 RUE DES ANNELETS,75019,Paris,2001,18,10,8,0,0,acquisition réhabilitation,19,logement familial,75019,48.8783619998301,2.3895183752327043
2000069,"9, BD SERURIER - 10, RUE DU LEMAN",75019,Paris,2001,8,0,8,0,0,construction neuve,19,logement familial,75019,48.87762006986145,2.405874021341188
2000019,5 AVENUE SIMON BOLIVAR (RS),75019,Paris,2001,17,17,0,0,0,acquisition réhabilitation,19,résidence sociale pour démunis,75019,48.87390254972288,2.384492245613487
2000053,64-70 RUE COMPANS,75019,Paris,2001,314,0,0,0,314,acquisition conventionnement,19,logement familial,75019,48.87868696965116,2.392842538034265
2000081,"97, RUE DE CRIMEE",75019,Paris,2001,1,0,1,0,0,construction neuve,19,logement familial,75019,48.88421618975864,2.383849674478485
2000003,"RUE PETIT - 15-21-23, ALLEE FONTAINEBLEAU",75019,Paris,2001,224,0,0,0,224,acquisition conventionnement,19,logement familial,75019,48.88568471012304,2.391916168518517
2000072,"10-14, PLACE DE L'ARGONNE",75019,Paris,2001,21,0,0,0,21,construction neuve,19,logement familial,75019,48.89381754035968,2.383031962541432
2000047,178 RUE DE CRIMEE,75019,Paris,2001,36,36,0,0,0,acquisition réhabilitation,19,logement familial,75019,48.89042570033795,2.3771742905805016
2000079,"7, BD SERURIER - 10, RUE DU LEMAN",75019,Paris,2001,8,0,8,0,0,acquisition réhabilitation,19,logement familial,75019,48.87754507008669,2.406030383619007
2000044,LOT D1B - 86 RUE DES HAIES,75020,Paris,2001,6,0,6,0,0,acquisition réhabilitation,20,logement familial,75020,48.85500366971155,2.403865260493333
2000042,LOT D1A - 94-98 RUE DES HAIES,75020,Paris,2001,16,0,16,0,0,construction neuve,20,logement familial,75020,48.8552639597924,2.404061512384068
2000029,165 RUE PELLEPORT,75020,Paris,2001,86,0,40,0,46,acquisition conventionnement,20,logement familial,75020,48.87473642957035,2.397790229541138
2000059,52 RUE STENDHAL- 55/57 RUE DES PRAIRIES,75020,Paris,2001,3,0,3,0,0,acquisition réhabilitation,20,logement familial,75020,48.86255655956688,2.4007654015866966
2000031,111 RUE DES PYRENEES 104 RUE DES HAIES,75020,Paris,2001,52,0,52,0,0,acquisition conventionnement,20,logement familial,75020,48.855876709798366,2.40493697433607
2000066,15 RUE BISSON,75020,Paris,2001,40,40,0,0,0,acquisition réhabilitation,20,foyer de travailleurs migrants,75020,48.87048858975698,2.3802023685179554
2000020,"71-73, RUE DE LA REUNION",75020,Paris,2001,8,0,8,0,0,construction neuve,20,logement familial,75020,48.85598282968652,2.4006284013979395
2000030,3 RUE PIERRE FONCIN,75020,Paris,2001,1,1,0,0,0,acquisition réhabilitation,20,logement familial,75020,48.87152436985915,2.409311751672369
2000073,"217-223, RUE DES  PYRENEES 30-38, RUE RAMUS",75020,Paris,2001,4,0,4,0,0,construction neuve,20,logement familial,75020,48.86298734025707,2.399691466424333
2000150,"253, RUE SAINT DENIS",75002,Paris,2002,1,1,0,0,0,acquisition conventionnement,2,logement familial,75002,48.868136630054565,2.3517346776164314
2000091,"54-56-58, RUE MONTMARTRE",75002,Paris,2002,30,0,30,0,0,acquisition réhabilitation,2,logement familial,75002,48.86538958024873,2.344977236044624
2000184,18 RUE POISSONNIERE,75002,Paris,2002,11,0,11,0,0,acquisition réhabilitation,2,logement familial,75002,48.86930803023366,2.3478657975003268
2000119,"191, RUE DU TEMPLE",75003,Paris,2002,16,5,11,0,0,acquisition conventionnement,3,logement familial,75003,48.865804740126045,2.360633115510238
2000129,"37, RUE NOTRE DAME DE NAZARETH",75003,Paris,2002,38,11,27,0,0,acquisition conventionnement,3,logement familial,75003,48.86743354008164,2.358003157372093
2000161,"345, RUE SAINT MARTIN",75003,Paris,2002,16,16,0,0,0,acquisition réhabilitation,3,logement familial,75003,48.86824595023758,2.3550205543434504
2000172,22 RUE BERANGER (RS),75003,Paris,2002,39,39,0,0,0,acquisition réhabilitation,3,résidence sociale pour démunis,75003,48.86652834025488,2.3635346455168578
2000187,"216 - 218 - 220, RUE SAINT MARTIN",75003,Paris,2002,27,0,27,0,0,acquisition réhabilitation,3,logement familial,75003,48.86383018965683,2.3529072376512223
2000164,"8, RUE ROLLIN",75005,Paris,2002,57,0,57,0,0,construction neuve,5,résidence étudiante,75005,48.844674189729886,2.3512646315548773
2000128,33 RUE HENRI BARBUSSE,75005,Paris,2002,16,4,12,0,0,acquisition conventionnement,5,logement familial,75005,48.84092529978057,2.338719584460179
2000190,48 RUE GALANDE,75005,Paris,2002,1,0,0,0,1,acquisition réhabilitation,5,logement familial,75005,48.85180273997268,2.3468579545962496
2000114,63 RUE DE GRENELLE,75007,Paris,2002,1,1,0,0,0,acquisition réhabilitation,7,logement familial,75007,48.85484491971796,2.3247942625040183
2000113,"93, RUE SAINT DOMINIQUE 2-4 RUE AMELIE",75007,Paris,2002,15,0,15,0,0,acquisition réhabilitation,7,logement familial,75007,48.85957020973672,2.307226483261079
2000120,"24, RUE JEAN NICOT",75007,Paris,2002,14,5,9,0,0,acquisition conventionnement,7,logement familial,75007,48.85989535034745,2.307615637619648
2000117,36 RUE DE WASHINGTON,75008,Paris,2002,94,24,70,0,0,acquisition conventionnement,8,logement familial,75008,48.873810549789006,2.304146066495313
2000086,"26, RUE BUFFAULT",75009,Paris,2002,7,0,7,0,0,acquisition réhabilitation,9,logement familial,75009,48.87601715021949,2.342249768365205
2000121,"42, RUE CADET",75009,Paris,2002,15,5,10,0,0,acquisition conventionnement,9,logement familial,75009,48.876426469943546,2.3443707514220304
2000127,"31, RUE DU FG MONTMARTRE",75009,Paris,2002,12,12,0,0,0,acquisition réhabilitation,9,logement familial,75009,48.87365784994192,2.34260281943189
2000145,"25, RUE JOUBERT",75009,Paris,2002,11,0,11,0,0,construction neuve,9,logement familial,75009,48.874596669869895,2.330596571164983
2000179,"39, RUE DE LA ROCHEFOUCAULD",75009,Paris,2002,18,18,0,0,0,acquisition réhabilitation,9,résidence sociale pour démunis,75009,48.87974718974765,2.334933797666983
2000122,"44, RUE D'HAUTEVILLE",75010,Paris,2002,13,0,13,0,0,acquisition réhabilitation,10,logement familial,75010,48.87371182979418,2.3505647123497395
2000103,162 RUE DU FAUBOURG SAINT DENIS,75010,Paris,2002,8,8,0,0,0,acquisition réhabilitation,10,logement familial,75010,48.87907508003237,2.3571050390288297
2000136,10 RUE D'ENGHIEN,75010,Paris,2002,9,0,9,0,0,acquisition réhabilitation,10,logement familial,75010,48.871823480229445,2.352368316622952
2000188,"46, RUE DE PARADIS",75010,Paris,2002,48,17,31,0,0,acquisition réhabilitation,10,logement familial,75010,48.8755560700534,2.3499753771881604
2000098,"24, RUE DU CHAUDRON",75010,Paris,2002,17,0,17,0,0,construction neuve,10,logement familial,75010,48.883652369889006,2.3647589075542927
2000123,"205, RUE SAINT MAUR",75010,Paris,2002,28,0,28,0,0,acquisition conventionnement,10,logement familial,75010,48.87233491974615,2.3713521593478992
2000154,13 BIS PASSAGE SAINT SEBASTIEN,75011,Paris,2002,52,52,0,0,0,acquisition réhabilitation,11,foyer pour jeunes travailleurs ou résidence pour jeunes actifs,75011,48.86203709972214,2.3704372302561167
2000093,146-148 RUE DE LA ROQUETTE,75011,Paris,2002,20,0,0,0,20,acquisition conventionnement,11,logement familial,75011,48.8581079397792,2.3824294804106696
2000100,"15-21, RUE DES NANETTES",75011,Paris,2002,78,12,40,0,26,acquisition conventionnement,11,logement familial,75011,48.86454374043392,2.3838346140965383
2000105,"62, RUE SAINT SABIN 2 RUE PELEE",75011,Paris,2002,12,0,12,0,0,acquisition réhabilitation,11,logement familial,75011,48.859316050427466,2.3687726575845534
2000180,148 BD VOLTAIRE (BAT B),75011,Paris,2002,27,0,27,0,0,acquisition réhabilitation,11,logement familial,75011,48.856374990293446,2.3821877263802707
2000092,LOT A ET B- 49-51 RUE LEON FROT (FROT PHALSBOURG),75011,Paris,2002,40,0,0,0,40,construction neuve,11,logement familial,75011,48.85587161981746,2.386176915549357
2000139,"18, BD VOLTAIRE",75011,Paris,2002,37,0,23,0,14,acquisition conventionnement,11,logement familial,75011,48.86528292037489,2.3672352506344905
2000107,"32-36, RUE GODEFROY-CAVAIGNAC",75011,Paris,2002,29,0,0,0,29,construction neuve,11,logement familial,75011,48.85598262025821,2.380748088362444
2000108,"41, RUE DE LYON",75012,Paris,2002,19,0,0,0,19,acquisition réhabilitation,12,logement familial,75012,48.84878357974397,2.3708475285613595
2000090,"26-28, AVENUE DU GENERAL BIZOT",75012,Paris,2002,4,0,0,0,4,construction neuve,12,logement familial,75012,48.83348720032753,2.399426257543652
2000097,"62, AVENUE MICHEL BIZOT",75012,Paris,2002,24,9,15,0,0,acquisition réhabilitation,12,logement familial,75012,48.83542282012853,2.4020396805642026
2000177,"69, AVENUE DU DOCTEUR ARNOLD NETTER",75012,Paris,2002,35,0,35,0,0,acquisition conventionnement,12,logement familial,75012,48.845767589852834,2.405808466163551
2000104,"1-7, RUE CORBINEAU",75012,Paris,2002,164,25,85,0,54,acquisition conventionnement,12,logement familial,75012,48.8387958596977,2.3814006272796764
2000138,"11, BD SOULT",75012,Paris,2002,24,24,0,0,0,acquisition réhabilitation,12,logement familial,75012,48.83627435957891,2.4071654783376384
2000125,"20-22, RUE DE TOUL",75012,Paris,2002,42,14,28,0,0,acquisition conventionnement,12,logement familial,75012,48.83905660018058,2.402618774313649
2000101,"123, RUE DE CHOISY",75013,Paris,2002,84,12,44,0,28,acquisition conventionnement,13,logement familial,75013,48.82594253993229,2.359918496140597
2000099,"63-67-69, RUE CORVISART",75013,Paris,2002,46,7,24,0,15,acquisition conventionnement,13,logement familial,75013,48.83021816023536,2.349095519321726
2000134,"18, RUE FAGON",75013,Paris,2002,50,10,40,0,0,acquisition conventionnement,13,logement familial,75013,48.832775789830094,2.3569302335428914
2000094,17 RUE CACHEUX,75013,Paris,2002,34,0,34,0,0,acquisition conventionnement,13,logement familial,75013,48.82041141009994,2.346139622401888
2000191,"78-84, RUE DU CHATEAU DES RENTIERS 71-73, RUE DE TOLBIAC",75013,Paris,2002,30,0,0,0,30,construction neuve,13,logement familial,75013,48.82681095996188,2.368909013578564
2000155,205-213 BD VINCENT AURIOL,75013,Paris,2002,168,0,0,0,168,acquisition conventionnement,13,logement familial,75013,48.831081300065215,2.3576097091177366
2000159,"LOT 3A- 32-34 RUE PERNETY, 5 RUE SAINTE LEONIE , PL. BK/14",75014,Paris,2002,14,0,0,0,14,construction neuve,14,logement familial,75014,48.83354721969243,2.318892759275523
2000171,POLE 2 - LOTS 2A  71 RUE RAYMOND LOSSERAND,75014,Paris,2002,4,0,4,0,0,acquisition réhabilitation,14,logement familial,75014,48.834132900220126,2.318608378137629
2000152,"7-9, RUE DIDOT",75014,Paris,2002,1,1,0,0,0,acquisition réhabilitation,14,logement familial,75014,48.83395376019527,2.321902830309339
2000169,POLE 2 - LOT 3B (CHATEAU OUVRIER) 32-34 RUE PERNETY PL BK/14,75014,Paris,2002,20,0,20,0,0,acquisition réhabilitation,14,logement familial,75014,48.83354721969243,2.318892759275523
2000133,"20, RUE SEVERO",75014,Paris,2002,45,9,36,0,0,acquisition conventionnement,14,logement familial,75014,48.832593570155495,2.3230514983187205
2000168,POLE 2 - LOTS 2B 69 RUE RAYMOND LOSSERAND ( 4 ATELIERS),75014,Paris,2002,4,0,4,0,0,construction neuve,14,logement familial,75014,48.83422959974876,2.318790094211753
2000102,"32-36, RUE DE L'OUEST",75014,Paris,2002,35,9,26,0,0,acquisition conventionnement,14,logement familial,75014,48.83673414034926,2.320552377497336
2000153,59 RUE FALGUIERE,75015,Paris,2002,45,11,34,0,0,acquisition réhabilitation,15,logement familial,75015,48.840825680272815,2.3132931682041624
2000182,"6-8, RUE DULAC",75015,Paris,2002,48,12,36,0,0,acquisition conventionnement,15,logement familial,75015,48.843270820293405,2.315386014514726
2000126,6 RUE DES FAVORITES,75015,Paris,2002,71,0,71,0,0,acquisition conventionnement,15,logement familial,75015,48.83954532021946,2.302747904538964
2000160,"ZAC VAUGIRARD  LOT B1 RUE DE LA PROCESSION  21, RUE ANDRE GIDE",75015,Paris,2002,55,0,55,0,0,construction neuve,15,logement familial,75015,48.83620330987225,2.311886189399795
2000189,"70-78, RUE LEBLANC 1-3, RUE ERNEST HEMINGWAY",75015,Paris,2002,46,0,0,0,46,construction neuve,15,logement familial,75015,48.83740083004633,2.2759111165091914
2000157,"14-18, RUE CAUCHY",75015,Paris,2002,92,14,58,0,20,acquisition conventionnement,15,logement familial,75015,48.84300703013455,2.2758199012674734
2000176,"100, RUE DE JAVEL",75015,Paris,2002,55,0,55,0,0,acquisition conventionnement,15,logement familial,75015,48.84398551966323,2.285649214440736
2000183,39-41 RUE OLIVIER DE SERRES,75015,Paris,2002,36,9,27,0,0,acquisition conventionnement,15,logement familial,75015,48.83480465015682,2.2960664564419644
2000149,"104 A 108, RUE DE LONGCHAMP",75016,Paris,2002,5,5,0,0,0,acquisition réhabilitation,16,logement familial,75016,48.86627218990042,2.2812028156555755
2000118,"54 BIS, AVENUE MOZART",75016,Paris,2002,27,7,20,0,0,acquisition conventionnement,16,logement familial,75016,48.85495276003832,2.269442529234623
2000096,"4-6, AVENUE RENE BOYLESVE, RUE CHARLES DICKENS, PASSY",75016,Paris,2002,23,1,22,0,0,construction neuve,16,logement familial,75016,48.8561442796728,2.284814216382296
2000151,"5, RUE DAUMIER",75016,Paris,2002,1,1,0,0,0,acquisition conventionnement,16,logement familial,75016,48.83931106977232,2.2640485044582856
2000137,9 AV PIERRE 1ER DE SERBIE,75016,Paris,2002,17,5,12,0,0,acquisition réhabilitation,16,logement familial,75016,48.86562122012856,2.2953758203768424
2000141,156-162 RUE DE SAUSSURE,75017,Paris,2002,34,0,0,0,34,construction neuve,17,logement familial,75017,48.8898848200499,2.305765953367304
2000148,"18, RUE BERZELIUS",75017,Paris,2002,31,31,0,0,0,acquisition réhabilitation,17,résidence sociale pour démunis,75017,48.89277622970175,2.3186838206063176
2000174,6-16 RUE DAUBIGNY,75017,Paris,2002,121,0,121,0,0,acquisition réhabilitation,17,logement familial,75017,48.884664399630495,2.3090484989830755
2000192,9 RUE DAUBIGNY 2-4 RUE BOREL 126 BD MALESHERBES,75017,Paris,2002,64,0,0,0,64,acquisition réhabilitation,17,logement familial,75017,48.89968689993737,2.32222084551439
2000124,"83, RUE DULONG",75017,Paris,2002,18,0,18,0,0,acquisition conventionnement,17,logement familial,75017,48.88685361994116,2.314247045656235
2000116,78 RUE PIERRE DEMOURS,75017,Paris,2002,22,6,16,0,0,acquisition conventionnement,17,logement familial,75017,48.882768930277166,2.2979319873101764
2000146,104 RUE DE LA JONQUIERE 1 PASSAGE BOULAY,75017,Paris,2002,4,4,0,0,0,acquisition réhabilitation,17,logement familial,75017,48.89509186032561,2.317536241482724
2000163,"5, RUE ERCKMANN CHATRIAN (HS)",75018,Paris,2002,5,0,5,0,0,construction neuve,18,logement familial,75018,48.88627108966837,2.351917730182831
2000095,268 RUE MARCADET,75018,Paris,2002,14,0,14,0,0,acquisition conventionnement,18,logement familial,75018,48.89294390972304,2.328343454562832
2000175,"169, RUE MARCADET",75018,Paris,2002,44,15,29,0,0,acquisition conventionnement,18,logement familial,75018,48.89142751976453,2.33675204427223
2000132,"1, RUE FERDINAND FLOCON",75018,Paris,2002,32,0,32,0,0,acquisition conventionnement,18,logement familial,75018,48.8910102102424,2.3454955354838933
2000147,"10, RUE LAGILLE",75018,Paris,2002,24,24,0,0,0,acquisition réhabilitation,18,logement familial,75018,48.89463903036073,2.328804922323937
2000158,ZAC MOSKOWA LOT F -  30 RUE BONNET,75018,Paris,2002,6,0,0,0,6,construction neuve,18,logement familial,75018,48.89739917002233,2.334063133623112
2000131,"7-7 BIS, RUE TRETAIGNE",75018,Paris,2002,42,0,42,0,0,acquisition conventionnement,18,logement familial,75018,48.89177494018087,2.3420643980897715
2000142,"61, RUE MYRHA  (HS)",75018,Paris,2002,25,0,25,0,0,acquisition réhabilitation,18,résidence étudiante,75018,48.88674538963976,2.351321092083742
2000162,"45, RUE MYRHA  31, RUE DES GARDES (HS)",75018,Paris,2002,5,0,5,0,0,construction neuve,18,logement familial,75018,48.88691199006239,2.3524279579998257
2000106,1-3 RUE PAJOL 10-12 PLACE DE LA CHAPELLE (LOT 1),75018,Paris,2002,56,0,56,0,0,construction neuve,18,résidence étudiante,75018,48.88502941970354,2.360351570261665
2000156,"3, RUE DU SIMPLON",75018,Paris,2002,17,0,0,0,17,acquisition conventionnement,18,logement familial,75018,48.89327907036616,2.3521857905696555
2000170,"3-5, RUE NEUVE DE LA CHARDONNIERE  46 BD ORNANO",75018,Paris,2002,77,0,77,0,0,construction neuve,18,résidence étudiante,75018,48.89472689043853,2.3477799691506296
2000140,29  RUE DE LA GOUTTE D'OR 30 RUE DE CHARTRES,75018,Paris,2002,6,0,6,0,0,construction neuve,18,logement familial,75018,48.88495625968166,2.353275483405198
2000186,"88, RUE PHILIPPE DE GIRARD",75018,Paris,2002,5,0,0,0,5,acquisition conventionnement,18,logement familial,75018,48.88919407044081,2.360572306943169
2000087,129 BD NEY,75018,Paris,2002,70,0,70,0,0,acquisition conventionnement,18,logement familial,75018,48.897518229885534,2.332907408634484
2000178,"88-90, BOULEVARD NEY",75018,Paris,2002,300,0,0,0,300,acquisition conventionnement,18,logement familial,75018,48.89843408004693,2.348548604108434
2000144,"LOT 2 - 9 -11, RUE DU DEPARTEMENT - 14 A 16, PASSAGE GOIX",75019,Paris,2002,16,0,0,0,16,construction neuve,19,logement familial,75019,48.88509916025585,2.3666721365193277
2000112,5 RUE DU RHIN,75019,Paris,2002,11,0,11,0,0,acquisition réhabilitation,19,logement familial,75019,48.885086139636975,2.3811837513757887
2000089,"22, ALLEE ANNE DE BEAUJEU - PASSAGE DES FOURS A CHAUX",75019,Paris,2002,40,0,0,0,40,acquisition conventionnement,19,logement familial,75019,48.87922422044564,2.3734572361498127
2000135,"92, RUE DE L'OURCQ",75019,Paris,2002,1,1,0,0,0,acquisition réhabilitation,19,logement familial,75019,48.89374369040934,2.3742250451410047
2000143,LOT 1 - 19 - 19 TER RUE DU DEPARTEMENT 22- 24 RUE D'AUBERVILLIERS,75019,Paris,2002,20,0,20,0,0,construction neuve,19,logement familial,75019,48.88537915038424,2.3660265854157285
2000109,"10, RUE DUVERGIER",75019,Paris,2002,18,0,0,0,18,acquisition conventionnement,19,logement familial,75019,48.88937364030682,2.377105620456127
2000111,LOT 3 - 1 BIS ET 3 PASSAGE GOIX - 22-24 RUE D'AUBERVILLIERS,75019,Paris,2002,10,0,0,0,10,construction neuve,19,logement familial,75019,48.88501405012888,2.366009991595924
2000173,LOT 3 - 13 - 17 RUE DU DEPARTEMENT,75019,Paris,2002,12,0,12,0,0,construction neuve,19,logement familial,75019,48.88525412014084,2.3663137684033395
2000115,"12-14-16, RUE DELAITRE",75020,Paris,2002,19,0,19,0,0,acquisition réhabilitation,20,logement familial,75020,48.86735197040677,2.3875022070302285
2000088,"92, RUE DES PYRENEES",75020,Paris,2002,22,0,22,0,0,acquisition réhabilitation,20,logement familial,75020,48.855194750066886,2.4055098170448432
2000165,"49, RUE RAMPONEAU",75020,Paris,2002,10,0,10,0,0,acquisition réhabilitation,20,logement familial,75020,48.87180758971142,2.3818993780493
2000185,"11, SQUARE VITRUVE",75020,Paris,2002,8,0,0,0,8,acquisition conventionnement,20,logement familial,75020,48.858924400214846,2.408831132531131
2000167,"45-47, RUE RAMPONEAU",75020,Paris,2002,13,0,13,0,0,construction neuve,20,logement familial,75020,48.87169984030591,2.3813682520566397
2000166,"12-14, RUE LESAGE",75020,Paris,2002,11,0,0,0,11,construction neuve,20,logement familial,75020,48.87216316964096,2.381604509258284
2000181,"49, RUE RAMPONEAU",75020,Paris,2002,3,0,3,0,0,construction neuve,20,logement familial,75020,48.87180758971142,2.3818993780493
2000130,"1, RUE DE CHINE",75020,Paris,2002,34,0,34,0,0,acquisition conventionnement,20,logement familial,75020,48.864549160243385,2.401381936400401
2000110,"6, RUE COURAT",75020,Paris,2002,35,0,0,0,35,acquisition conventionnement,20,logement familial,75020,48.8567368401902,2.4056446505735485
2000264,"32, RUE DE LA GRANDE TRUANDERIE",75001,Paris,2003,17,5,12,0,0,acquisition conventionnement,1,logement familial,75001,48.863077809685976,2.3481561301679545
2000223,85 RUE RAMBUTEAU,75001,Paris,2003,21,0,21,0,0,acquisition conventionnement,1,logement familial,75001,48.86225271010711,2.348676395543031
2000272,5 RUE D'UZES,75002,Paris,2003,15,0,15,0,0,construction neuve,2,logement familial,75002,48.870386199662825,2.345087364296843
2000260,10-14 RUE SAINT GILLES,75003,Paris,2003,75,25,50,0,0,acquisition réhabilitation,3,logement familial,75003,48.857858549858776,2.3667216935731874
2000206,29 BIS RUE DES FRANCS-BOURGEOIS,75004,Paris,2003,13,0,13,0,0,acquisition réhabilitation,4,logement familial,75004,48.85741627956797,2.3612187710828483
2000235,34 BD DE SEBASTOPOL,75004,Paris,2003,23,0,12,0,11,acquisition conventionnement,4,logement familial,75004,48.8612864300644,2.3499951131772083
2000210,"159, RUE SAINT JACQUES",75005,Paris,2003,6,0,6,0,0,acquisition réhabilitation,5,logement familial,75005,48.84630376993525,2.3432100201433608
2000289,13 RUE DE LA HUCHETTE,75005,Paris,2003,17,0,17,0,0,acquisition réhabilitation,5,logement familial,75005,48.85288678958509,2.3459052383261314
2000292,"218, RUE SAINT JACQUES",75005,Paris,2003,23,0,23,0,0,acquisition réhabilitation,5,logement familial,75005,48.84505930022143,2.342327498370829
2000286,"8, RUE DESCARTES",75005,Paris,2003,10,0,10,0,0,acquisition réhabilitation,5,logement familial,75005,48.847134069818566,2.348589436560838
2000212,"45, RUE LHOMOND",75005,Paris,2003,5,0,5,0,0,acquisition réhabilitation,5,logement familial,75005,48.84205809006168,2.3478587693836483
2000287,"45-47, RUE DE LA MONTAGNE SAINTE GENEVIEVE",75005,Paris,2003,19,0,19,0,0,acquisition réhabilitation,5,logement familial,75005,48.84710207972488,2.3481444556350386
2000207,"14, RUE DESCARTES",75005,Paris,2003,4,0,4,0,0,acquisition réhabilitation,5,logement familial,75005,48.847009179815,2.348771893557616
2000211,"15, PASSAGE DU CLOS BRUNEAU",75005,Paris,2003,6,0,6,0,0,acquisition réhabilitation,5,logement familial,75005,48.848605389820406,2.347677601438599
2000291,"157, RUE SAINT JACQUES",75005,Paris,2003,9,0,9,0,0,acquisition réhabilitation,5,logement familial,75005,48.846362669627055,2.343244366453339
2000290,"1, RUE ROYER COLLARD",75005,Paris,2003,7,0,7,0,0,acquisition réhabilitation,5,logement familial,75005,48.845587940240215,2.3424711540732157
2000209,2-4 IMPASSE MAUBERT 3 RUE FREDERIC SAUTON,75005,Paris,2003,11,0,11,0,0,acquisition réhabilitation,5,logement familial,75005,48.85116113041647,2.349317043141275
2000214,"40-42, RUE DE LA BIENFAISANCE",75008,Paris,2003,22,6,16,0,0,acquisition conventionnement,8,logement familial,75008,48.87662185036552,2.3152776663682886
2000208,"35-37, RUE DE LA TOUR D'AUVERGNE",75009,Paris,2003,25,0,25,0,0,acquisition réhabilitation,9,logement familial,75009,48.87947171998957,2.3419315515391514
2000233,18 RUE DU DELTA,75009,Paris,2003,13,0,13,0,0,acquisition conventionnement,9,logement familial,75009,48.88249473000108,2.347772405330083
2000241,"8, RUE DE LA CHAUSSEE D'ANTIN",75009,Paris,2003,28,0,28,0,0,acquisition réhabilitation,9,logement familial,75009,48.87168240016268,2.3339845542732167
2000227,29 RUE NAVARIN,75009,Paris,2003,16,16,0,0,0,acquisition réhabilitation,9,maison relais,75009,48.87983774042685,2.3378074233769195
2000202,"35 A 41, RUE VICTOR MASSE , 54 RUE J.B. PIGALLE",75009,Paris,2003,139,28,98,0,13,acquisition conventionnement,9,logement familial,75009,48.88094098039984,2.3370108830970344
2000213,27 RUE DU FAUBOURG POISSONNIERE,75009,Paris,2003,22,0,22,0,0,acquisition réhabilitation,9,logement familial,75009,48.87284936000583,2.347798500343944
2000229,49 RUE RODIER,75009,Paris,2003,9,2,7,0,0,acquisition réhabilitation,9,logement familial,75009,48.88045620965961,2.3438086453695024
2000249,"1, PLACE DE BUDAPEST- 3 BIS ET 6, RUE DE BUDAPEST",75009,Paris,2003,25,0,25,0,0,acquisition réhabilitation,9,logement familial,75009,48.87703696994993,2.327162905674711
2000274,10 RUE DIEU,75010,Paris,2003,19,0,19,0,0,acquisition conventionnement,10,logement familial,75010,48.87035374037031,2.3647646516488376
2000285,"59, RUE DE LANCRY , 2-4 RUE LEGOUVE",75010,Paris,2003,24,5,19,0,0,construction neuve,10,logement familial,75010,48.87207222972311,2.3626099784400973
2000243,"108-110 QUAI DE JEMMAPES, 54 RUE BICHAT,11 RUE DE L'HOPITAL ST LOUIS",75010,Paris,2003,9,0,0,0,9,construction neuve,10,logement familial,75010,48.8741282596961,2.36364775768368
2000265,59 BD DE STRASBOURG,75010,Paris,2003,45,0,45,0,0,acquisition réhabilitation,10,foyer pour personnes handicapées,75010,48.873254260284696,2.3562291684299503
2000273,4-10 RUE TERNAUX,75011,Paris,2003,53,0,53,0,0,acquisition réhabilitation,11,logement familial,75011,48.86394821008894,2.3723131395320274
2000242,91-93 RUE OBERKAMPF,75011,Paris,2003,28,0,0,0,28,construction neuve,11,logement familial,75011,48.86532521045257,2.3756065645600244
2000248,"19, RUE PASTEUR",75011,Paris,2003,36,9,27,0,0,acquisition réhabilitation,11,logement familial,75011,48.862484410312135,2.375980360116285
2000270,"95, RUE DE MONTREUIL",75011,Paris,2003,39,4,35,0,0,acquisition réhabilitation,11,logement familial,75011,48.8505755497353,2.393298918043063
2000204,"77, AVENUE DE LA REPUBLIQUE",75011,Paris,2003,51,0,34,0,17,acquisition conventionnement,11,logement familial,75011,48.86436229041177,2.3800887915176427
2000193,24 RUE AMELOT 4 RUE DU CHEMIN VERT,75011,Paris,2003,28,0,0,0,28,construction neuve,11,logement familial,75011,48.85698097975996,2.368993174457123
2000255,"92, RUE DU FG DU TEMPLE",75011,Paris,2003,7,0,7,0,0,construction neuve,11,logement familial,75011,48.87096622957637,2.374149942620124
2000277,4-10 RUE TERNAUX,75011,Paris,2003,13,13,0,0,0,acquisition réhabilitation,11,foyer pour jeunes travailleurs ou résidence pour jeunes actifs,75011,48.86394821008894,2.3723131395320274
2000268,11-13 PASSAGE DU GENIE,75012,Paris,2003,68,68,0,0,0,construction neuve,12,résidence sociale pour démunis,75012,48.848347179965664,2.3892834312126627
2000261,180 RUE DU FAUBOURG SAINT ANTOINE (FPH-MAISON RELAIS),75012,Paris,2003,13,13,0,0,0,acquisition réhabilitation,12,maison relais,75012,48.8501906500172,2.382653808204214
2000296,"162, RUE DE PICPUS",75012,Paris,2003,48,0,0,0,48,construction neuve,12,logement familial,75012,48.8345552098727,2.404118249509048
2000297,"105-109, RUE DE REUILLY",75012,Paris,2003,17,0,0,0,17,acquisition conventionnement,12,logement familial,75012,48.8426923800788,2.3923039455109976
2000218,13 RUE GUYTON DE MORVEAU,75013,Paris,2003,15,0,0,0,15,acquisition réhabilitation,13,logement familial,75013,48.82475918984109,2.3481670106129187
2000215,"7, RUE ALBERT",75013,Paris,2003,15,0,0,0,15,construction neuve,13,logement familial,75013,48.850799779680926,2.3499089665541333
2000200,"LOT D - 17-21, RUE TAGORE 143-145 AV D'ITALIE",75013,Paris,2003,35,0,0,0,35,acquisition conventionnement,13,logement familial,75013,48.82047864009213,2.3597268273638705
2000240,ZAC PRG  - LOT M11 - RUE  CHEVALERET (54 RUE GRANDS MOULINS) (SAGEM),75013,Paris,2003,56,0,56,0,0,construction neuve,13,résidence étudiante,75013,48.82771499962734,2.376632978605341
2000195,49 BIS RUE DU MOULIN DE LA POINTE,75013,Paris,2003,9,0,0,0,9,construction neuve,13,logement familial,75013,48.82243627039508,2.3565991593485918
2000247,"2-2 BIS, RUE EDMOND FLAMAND",75013,Paris,2003,25,25,0,0,0,acquisition réhabilitation,13,logement familial,75013,48.836861070287554,2.371798230582399
2000199,LOT C - 28-28 BIS RUE GANDON ET 1-7 RUE TAGORE,75013,Paris,2003,29,0,0,0,29,acquisition conventionnement,13,logement familial,75013,48.82066963001863,2.3610196945560973
2000275,"21, RUE DES MALMAISONS",75013,Paris,2003,32,32,0,0,0,acquisition réhabilitation,13,foyer pour jeunes travailleurs ou résidence pour jeunes actifs,75013,48.821291749679744,2.361911056391663
2000253,"10, RUE DU MOULIN DE LA POINTE",75013,Paris,2003,38,0,0,0,38,construction neuve,13,logement familial,75013,48.82424273038634,2.3569509510499684
2000269,"70, BD VINCENT AURIOL",75013,Paris,2003,37,37,0,0,0,acquisition réhabilitation,13,résidence sociale pour démunis,75013,48.834393280186966,2.365745005510957
2000266,17 RUE BROUSSAIS,75014,Paris,2003,100,0,50,0,50,construction neuve,14,logement familial,75014,48.82890090995269,2.3366869225347435
2000205,"8-10, RUE DU TEXEL",75014,Paris,2003,28,7,21,0,0,acquisition conventionnement,14,logement familial,75014,48.836844550220256,2.3197622201099666
2000252,POLE 3 - LOT 4A (ETUDIANTS) 8 RUE SAINTE LEONIE,75014,Paris,2003,45,0,45,0,0,construction neuve,14,résidence étudiante,75014,48.833470680374695,2.3198051303591423
2000222,29 RUE DE GERGOVIE,75014,Paris,2003,24,0,12,0,12,acquisition conventionnement,14,logement familial,75014,48.833640419739446,2.315301592594208
2000221,"21, RUE D'OUESSANT",75015,Paris,2003,14,0,10,0,4,acquisition réhabilitation,15,logement familial,75015,48.84991422009899,2.2980661072838604
2000201,19-23  RUE DU DOCTEUR FINLAY,75015,Paris,2003,178,53,107,0,18,acquisition conventionnement,15,logement familial,75015,48.85227743031893,2.2886223451570324
2000228,"4, RUE ERNEST RENAN",75015,Paris,2003,28,0,18,0,10,acquisition réhabilitation,15,logement familial,75015,48.844064620178486,2.309343017497777
2000276,"19-21, RUE LAKANAL",75015,Paris,2003,44,7,37,0,0,acquisition conventionnement,15,logement familial,75015,48.843916789662345,2.295560164215728
2000217,207-211 RUE SAINT CHARLES,75015,Paris,2003,127,0,85,0,42,acquisition conventionnement,15,logement familial,75015,48.83927585994294,2.2792901864049475
2000230,58 RUE DU THEATRE,75015,Paris,2003,68,10,48,0,10,acquisition conventionnement,15,logement familial,75015,48.848253940314926,2.289580114160072
2000224,ZAC VAUGIRARD LOT B2  8-10 RUE GEORGE DUHAMEL 19 RUE ANDRE GIDE,75015,Paris,2003,44,0,0,0,44,construction neuve,15,logement familial,75015,48.83631856009006,2.312479782204134
2000232,"45, RUE D'ALLERAY",75015,Paris,2003,52,13,39,0,0,acquisition conventionnement,15,logement familial,75015,48.83679070978503,2.3039918992014563
2000236,"25, RUE LE SUEUR 36-38, RUE DURET",75016,Paris,2003,27,6,21,0,0,acquisition conventionnement,16,logement familial,75016,48.87558304004968,2.287112508148172
2000250,"1, RUE CHARLES TELLIER",75016,Paris,2003,22,6,16,0,0,acquisition réhabilitation,16,logement familial,75016,48.83815158984207,2.2628535611635234
2000267,4 RUE DAUBIGNY,75017,Paris,2003,16,16,0,0,0,acquisition réhabilitation,17,maison relais,75017,48.88455255027548,2.30917609519214
2000278,"7, RUE DE PUTEAUX",75017,Paris,2003,25,25,0,0,0,acquisition réhabilitation,17,foyer de travailleurs migrants,75017,48.88306374975312,2.321756547256648
2000234,PORTE D'ASNIERES LOT B1 - B2 -7 RUE STEPHANE GRAPPELLI,75017,Paris,2003,33,0,0,0,33,construction neuve,17,logement familial,75017,48.89240734023671,2.303778568365931
2000259,156-162 RUE DE SAUSSURE,75017,Paris,2003,85,0,79,0,6,construction neuve,17,logement familial,75017,48.8898848200499,2.305765953367304
2000220,"96, RUE DES MOINES",75017,Paris,2003,43,0,0,0,43,acquisition conventionnement,17,logement familial,75017,48.891760680203255,2.322097065351001
2000257,3 COUR SAINT PIERRE,75017,Paris,2003,6,0,6,0,0,acquisition réhabilitation,17,logement familial,75017,48.88696322992107,2.325380667373796
2000262,5 RUE DU MARCHE ORDENER (MAISON RELAIS),75018,Paris,2003,8,8,0,0,0,acquisition réhabilitation,18,maison relais,75018,48.890172530382905,2.359011616336653
2000288,"11-13, RUE LEON",75018,Paris,2003,15,0,15,0,0,construction neuve,18,logement familial,75018,48.88737152042514,2.3533985925907634
2000226,"18-20, AVENUE DE SAINT OUEN",75018,Paris,2003,67,0,67,0,0,acquisition réhabilitation,18,logement familial,75018,48.88837661995492,2.326057658368529
2000246,"16-18, RUE LAGHOUAT",75018,Paris,2003,14,0,14,0,0,construction neuve,18,logement familial,75018,48.88796284000133,2.354962987338721
2000279,"4, PASSAGE KRACHER",75018,Paris,2003,10,10,0,0,0,acquisition réhabilitation,18,foyer de travailleurs migrants,75018,48.89492618034963,2.3490855189967457
2000258,"204, RUE CHAMPIONNET",75018,Paris,2003,33,0,33,0,0,construction neuve,18,résidence étudiante,75018,48.89388013977767,2.330814101390561
2000293,50-52 RUE PHILIPPE DE GIRARD,75018,Paris,2003,31,0,31,0,0,acquisition réhabilitation,18,logement familial,75018,48.88547813971711,2.361342312666529
2000219,"10, RUE PAJOL - 57, RUE PHILIPPE DE GIRARD",75018,Paris,2003,19,0,0,0,19,construction neuve,18,logement familial,75018,48.88555792976806,2.3607834752680072
2000294,"23, RUE JEAN ROBERT",75018,Paris,2003,12,12,0,0,0,acquisition réhabilitation,18,logement familial,75018,48.89011828990337,2.358192365625457
2000216,17-17BIS RUE REBEVAL 5-7 RUE LOUISE LABBE,75019,Paris,2003,83,0,0,0,83,acquisition conventionnement,19,logement familial,75019,48.87436412017787,2.3775063340899814
2000295,"13-21 AV PTE DES LILAS,  6 AV FONCK LOTS F2- F3",75019,Paris,2003,268,0,268,0,0,construction neuve,19,résidence étudiante,75019,48.87831655991223,2.4096111726007936
2000196,"2-4, RUE DELOUVAIN - 16, RUE DE LA VILLETTE",75019,Paris,2003,16,0,0,0,16,construction neuve,19,logement familial,75019,48.87557648993967,2.38763461535732
2000237,"137, RUE HAXO",75019,Paris,2003,6,0,0,0,6,construction neuve,19,logement familial,75019,48.87771203975173,2.4016876005242347
2000256,"53, RUE COMPANS 18 RUE DE CRIMEE",75019,Paris,2003,7,0,7,0,0,construction neuve,19,logement familial,75019,48.87879002043535,2.3924742125689527
2000280,12 RUE DES LILAS,75019,Paris,2003,1,1,0,0,0,acquisition réhabilitation,19,logement familial,75019,48.878744029998174,2.396147036018739
2000239,"60, RUE D'AUBERVILLIERS   (LOGTS ETUDIANTS)",75019,Paris,2003,94,0,94,0,0,construction neuve,19,résidence étudiante,75019,48.88756519036457,2.367255273336818
2000263,26 - 26BIS RUE DE L'ARGONNE,75019,Paris,2003,76,76,0,0,0,construction neuve,19,foyer de travailleurs migrants,75019,48.89397955995955,2.3824850273278644
2000225,"8 A 10, RUE DES LILAS 27-33 RUE DU PRE-SAINT GERVAIS",75019,Paris,2003,69,0,22,0,47,construction neuve,19,logement familial,75019,48.87847337015975,2.3959371440600417
2000197,"191-195, AVENUE JEAN JAURES",75019,Paris,2003,88,0,0,0,88,acquisition conventionnement,19,logement familial,75019,48.88825047041985,2.3897645445316598
2000238,"115 RUE DE CRIMEE ET 5 A 15, PASSAGE DU NORD  (BATIMENT COUR)",75019,Paris,2003,21,0,0,0,21,construction neuve,19,logement familial,75019,48.88550190981216,2.382549030236464
2000271,"24, RUE D'ALSACE LORRAINE - 32, RUE DE LA SOLIDARITE",75019,Paris,2003,4,0,4,0,0,construction neuve,19,logement familial,75019,48.88355172022986,2.392152742378824
2000245,"LOT B5 - 8-10, RUE MICHEL DE BOURGES 2, IMPASSE DE LA LOI",75020,Paris,2003,21,0,21,0,0,construction neuve,20,résidence étudiante,75020,48.85424053002993,2.400457692551963
2000231,"50, RUE DE BAGNOLET -  5, RUE DES ORTEAUX",75020,Paris,2003,13,13,0,0,0,acquisition réhabilitation,20,foyer pour jeunes travailleurs ou résidence pour jeunes actifs,75020,48.85715667999418,2.3986548385233264
2000251,"5, RUE LESAGE",75020,Paris,2003,5,0,0,0,5,acquisition réhabilitation,20,logement familial,75020,48.872082660390014,2.3811155775264337
2000203,"8-10, RUE LISFRANC",75020,Paris,2003,11,0,0,0,11,acquisition conventionnement,20,logement familial,75020,48.86175791024579,2.402243240605608
2000254,"LOT P2B - 76-78, RUE DES HAIES",75020,Paris,2003,26,0,0,0,26,construction neuve,20,logement familial,75020,48.85467452032919,2.4032899179755245
2000244,"LOT B5 - 8-10, RUE MICHEL DE BOURGES 2, IMPASSE DE LA LOI",75020,Paris,2003,30,0,30,0,0,acquisition réhabilitation,20,résidence étudiante,75020,48.85424053002993,2.400457692551963
2000282,397 RUE DES PYRENEES,75020,Paris,2003,1,1,0,0,0,acquisition réhabilitation,20,logement familial,75020,48.87378780038332,2.386276967489508
2000194,97 BD DAVOUT,75020,Paris,2003,20,0,0,0,20,construction neuve,20,logement familial,75020,48.85534178026296,2.4100153815301413
2000283,50 RUE PIAT,75020,Paris,2003,1,1,0,0,0,acquisition réhabilitation,20,logement familial,75020,48.8730006797824,2.38383109715151
2000198,"158-166, BOULEVARD DE CHARONNE",75020,Paris,2003,50,0,0,0,50,acquisition conventionnement,20,logement familial,75020,48.85690688023265,2.3942815093275653
2000281,8 VILLA GAGLIARDINI,75020,Paris,2003,1,1,0,0,0,acquisition réhabilitation,20,logement familial,75020,48.87546298040972,2.403506399371492
2000284,"4, CITE LEROY",75020,Paris,2003,1,1,0,0,0,acquisition réhabilitation,20,logement familial,75020,48.87076168995177,2.392967078625055
2000334,4 RUE THOREL,75002,Paris,2004,6,0,6,0,0,acquisition réhabilitation,2,logement familial,75002,48.86951771038834,2.349061077554188
2000346,14 BIS-16 RUE BLONDEL,75002,Paris,2004,6,0,6,0,0,acquisition réhabilitation,2,logement familial,75002,48.86877436014122,2.353545260309601
2000341,"45 RUE DU SENTIER - 9, BD POISSONNIERE",75002,Paris,2004,22,5,17,0,0,acquisition réhabilitation,2,logement familial,75002,48.87066415990635,2.346536592565728
2000397,23 RUE GRENETA,75002,Paris,2004,5,2,3,0,0,acquisition réhabilitation,2,logement familial,75002,48.86508140043767,2.350549403247236
2000399,"7,  RUE D'UZES",75002,Paris,2004,8,2,6,0,0,acquisition réhabilitation,2,logement familial,75002,48.87042537002672,2.3448754521761868
2000306,"130 -134,  RUE MONTMARTRE",75002,Paris,2004,27,6,21,0,0,acquisition conventionnement,2,logement familial,75002,48.86828749009585,2.343657348378822
2000398,93 BOULEVARD BEAUMARCHAIS,75003,Paris,2004,29,7,15,0,7,acquisition réhabilitation,3,logement familial,75003,48.85960654999909,2.3673175075848363
2000395,22 RUE BERANGER (RS),75003,Paris,2004,10,10,0,0,0,construction neuve,3,résidence sociale pour démunis,75003,48.86652834025488,2.3635346455168578
2000335,"6, RUE MORNAY",75004,Paris,2004,16,0,16,0,0,acquisition réhabilitation,4,logement familial,75004,48.8498326003874,2.3645395756186818
2000352,12 RUE PERNELLE,75004,Paris,2004,8,0,8,0,0,acquisition réhabilitation,4,logement familial,75004,48.85870453987061,2.348945629542321
2000333,"4, RUE D'ECOSSE",75005,Paris,2004,5,0,5,0,0,acquisition réhabilitation,5,logement familial,75005,48.84816880965027,2.346505821332708
2000336,8-10 RUE DE LATRAN,75005,Paris,2004,13,4,9,0,0,acquisition réhabilitation,5,logement familial,75005,48.84975136044108,2.3464681505164813
2000320,"24, RUE BONAPARTE",75006,Paris,2004,63,0,63,0,0,acquisition réhabilitation,6,résidence étudiante,75006,48.85584202013196,2.334091207080577
2000349,23 RUE DE L'HIRONDELLE,75006,Paris,2004,8,2,6,0,0,acquisition réhabilitation,6,logement familial,75006,48.85358739005631,2.342931501282847
2000419,64 RUE DE VARENNE,75007,Paris,2004,9,3,6,0,0,construction neuve,7,logement familial,75007,48.854948890387455,2.320178407029301
2000416,96 RUE DE SEVRES,75007,Paris,2004,6,6,0,0,0,construction neuve,7,logement familial,75007,48.84620982043454,2.314347468315377
2000359,6 RUE DE LA BOETIE,75008,Paris,2004,10,3,5,0,2,acquisition réhabilitation,8,logement familial,75008,48.87445408024338,2.3184358984215927
2000302,"21, RUE DE PROVENCE  18 RUE CHAUCHAT",75009,Paris,2004,11,0,11,0,0,acquisition réhabilitation,9,logement familial,75009,48.87404825998757,2.3399109445467587
2000353,40-42 RUE DE LA ROCHEFOUCAULD,75009,Paris,2004,24,4,20,0,0,acquisition conventionnement,9,logement familial,75009,48.87950157012378,2.3349743073651825
2000357,29 RUE GODOT DE MAUROY,75009,Paris,2004,10,2,8,0,0,acquisition conventionnement,9,logement familial,75009,48.8719080598575,2.327197414549305
2000431,3 RUE DU HELDER,75009,Paris,2004,17,4,13,0,0,acquisition réhabilitation,9,logement familial,75009,48.87148184997004,2.3347540560429803
2000337,5 RUE DE LA BOULE ROUGE,75009,Paris,2004,4,0,4,0,0,acquisition réhabilitation,9,logement familial,75009,48.873435879755405,2.3446710370110573
2000345,"12 A 16, RUE DU CHALET",75010,Paris,2004,26,0,26,0,0,construction neuve,10,logement familial,75010,48.8736672597286,2.3736638792222124
2000436,98 RUE LA FAYETTE,75010,Paris,2004,1,1,0,0,0,acquisition conventionnement,10,logement familial,75010,48.87725293999792,2.349579421285365
2000447,"24-26, PASSAGE DU DESIR",75010,Paris,2004,2,2,0,0,0,acquisition réhabilitation,10,logement familial,75010,48.87324474020135,2.357056834340971
2000327,"13, RUE PHILIPPE DE GIRARD",75010,Paris,2004,59,0,59,0,0,acquisition réhabilitation,10,résidence étudiante,75010,48.88212244040069,2.3613637063910624
2000432,118 RUE DU FAUBOURG SAINT MARTIN,75010,Paris,2004,17,17,0,0,0,acquisition réhabilitation,10,maison relais,75010,48.87406944981371,2.358627106549428
2000360,"9, RUE GUY PATIN",75010,Paris,2004,67,0,67,0,0,acquisition réhabilitation,10,logement familial,75010,48.88327835042769,2.3510944293404257
2000404,44 RUE ALBERT THOMAS,75010,Paris,2004,15,3,12,0,0,acquisition conventionnement,10,logement familial,75010,48.87027312963257,2.362256136171978
2000438,"63, RUE DE CHABROL",75010,Paris,2004,25,0,25,0,0,acquisition réhabilitation,10,logement familial,75010,48.87711528018804,2.350820465004039
2000328,"13, RUE PHILIPPE DE GIRARD",75010,Paris,2004,67,0,32,0,35,acquisition réhabilitation,10,logement familial,75010,48.88212244040069,2.3613637063910624
2000377,7 RUE GUY PATIN,75010,Paris,2004,2,2,0,0,0,acquisition réhabilitation,10,logement familial,75010,48.88301791028926,2.3510740825950367
2000388,"99, BD MAGENTA 136, RUE LA FAYETTE",75010,Paris,2004,33,9,15,0,9,acquisition réhabilitation,10,logement familial,75010,48.87814735015116,2.3541387551999287
2000406,"45, RUE LOUIS BLANC",75010,Paris,2004,17,8,9,0,0,construction neuve,10,logement familial,75010,48.88173646999061,2.363759928235587
2000326,2 BD DE STRASBOURG,75010,Paris,2004,17,0,17,0,0,acquisition conventionnement,10,logement familial,75010,48.86951434998252,2.3545990870274416
2000322,"8-10, CITE DU HERON",75010,Paris,2004,16,0,6,0,10,construction neuve,10,logement familial,75010,48.87453169019521,2.364920757360553
2000384,"150, RUE LA FAYETTE",75010,Paris,2004,26,6,14,0,6,acquisition réhabilitation,10,logement familial,75010,48.87894749964974,2.356043467314265
2000315,"13 BIS,  AVENUE PHILIPPE AUGUSTE",75011,Paris,2004,22,5,17,0,0,acquisition conventionnement,11,logement familial,75011,48.85022533002471,2.394535992423695
2000410,16 RUE GUENOT,75011,Paris,2004,18,0,18,0,0,acquisition conventionnement,11,logement familial,75011,48.85180683971143,2.3921425282107456
2000448,"8-10, RUE DE L'ORILLON",75011,Paris,2004,45,45,0,0,0,acquisition réhabilitation,11,foyer pour jeunes travailleurs ou résidence pour jeunes actifs,75011,48.86963673991759,2.3746398022220103
2000347,"41, RUE BASFROI",75011,Paris,2004,2,0,2,0,0,construction neuve,11,logement familial,75011,48.85590331005695,2.378466117142549
2000418,7 RUE DURANTI,75011,Paris,2004,82,0,41,0,41,acquisition conventionnement,11,logement familial,75011,48.86088754035106,2.3843648282726946
2000316,"22, RUE GUENOT",75011,Paris,2004,13,13,0,0,0,acquisition réhabilitation,11,logement familial,75011,48.85204055975343,2.392063266592426
2000403,"25, RUE MORAND",75011,Paris,2004,29,29,0,0,0,acquisition réhabilitation,11,résidence sociale pour démunis,75011,48.86954232974593,2.375629943357381
2000304,"7, RUE DESARGUES",75011,Paris,2004,9,0,0,0,9,acquisition réhabilitation,11,logement familial,75011,48.86970826997885,2.376398081049255
2000396,4 RUE DU GRAND PRIEURE,75011,Paris,2004,17,4,7,0,6,acquisition réhabilitation,11,logement familial,75011,48.86480982980548,2.369283327127357
2000403,"25, RUE MORAND",75011,Paris,2004,9,9,0,0,0,construction neuve,11,résidence sociale pour démunis,75011,48.86954232974593,2.375629943357381
2000430,"29, PASSAGE DE MENILMONTANT (RS)",75011,Paris,2004,41,41,0,0,0,acquisition réhabilitation,11,résidence sociale pour démunis,75011,48.86543211007731,2.383579474241445
2000325,91-93 RUE OBERKAMPF,75011,Paris,2004,14,0,14,0,0,construction neuve,11,logement familial,75011,48.86532521045257,2.3756065645600244
2000440,"50 BIS, RUE DE MALTE",75011,Paris,2004,6,3,3,0,0,acquisition réhabilitation,11,logement familial,75011,48.86711189993868,2.366820213213173
2000402,IMPASSE CESSELIN 12 RUE PAUL BERT,75011,Paris,2004,43,8,16,0,19,construction neuve,11,logement familial,75011,48.85176768037713,2.384726779478451
2000411,POLE CHANZY 30 RUE DE CHANZY,75011,Paris,2004,19,4,15,0,0,construction neuve,11,logement familial,75011,48.85270196989902,2.3855253105009835
2000350,66 RUE DE LA FOLIE MERICOURT,75011,Paris,2004,6,0,0,0,6,construction neuve,11,logement familial,75011,48.86510420020082,2.371040668242875
2000370,11 PASSAGE TURQUETIL,75011,Paris,2004,3,0,3,0,0,acquisition réhabilitation,11,logement familial,75011,48.85217971993456,2.3925691794156165
2000305,"27-29, RUE DU NIGER",75012,Paris,2004,82,16,66,0,0,acquisition conventionnement,12,logement familial,75012,48.84411257956543,2.4073046496028963
2000394,"105-109, RUE DE REUILLY",75012,Paris,2004,416,95,244,0,77,acquisition conventionnement,12,logement familial,75012,48.8426923800788,2.3923039455109976
2000450,"121, 123, 123 BIS, RUE DE PICPUS",75012,Paris,2004,17,6,11,0,0,construction neuve,12,logement familial,75012,48.83837893033729,2.4015323264500257
2000442,14 A 16 AVENUE DE SAINT MANDE,75012,Paris,2004,64,0,64,0,0,construction neuve,12,logement familial,75012,48.84517951990851,2.39762271026784
2000303,24 RUE DU RENDEZ VOUS,75012,Paris,2004,9,0,9,0,0,acquisition réhabilitation,12,logement familial,75012,48.84550974974028,2.403991158495159
2000443,"14-16, AVENUE DE SAINT MANDE",75012,Paris,2004,16,16,0,0,0,construction neuve,12,logement familial,75012,48.84518196971586,2.3976416360853245
2000318,"158-160, RUE DU FAUBOURG SAINT ANTOINE OU 47-49 RUE DE CITEAUX",75012,Paris,2004,11,0,11,0,0,construction neuve,12,logement familial,75012,48.85030056984663,2.3810070930721885
2000408,"1 A 9, RUE DU CHAROLAIS , 15 TER BD DE BERCY",75012,Paris,2004,80,16,64,0,0,construction neuve,12,logement familial,75012,48.83933631988762,2.387616692304902
2000329,"103-103 BIS, RUE DE CHARENTON",75012,Paris,2004,32,6,26,0,0,construction neuve,12,logement familial,75012,48.84733843997424,2.3778458383426413
2000386,"GROUPE JOSEPH BEDIER - 15-23, AVENUE CLAUDE REGAUD",75013,Paris,2004,51,0,0,33,18,construction neuve,13,logement familial,75013,48.82136722963405,2.3726653022473783
2000385,"ZAC PRG LOT M3B3 8-12, RUE ELSA MORANTE",75013,Paris,2004,48,0,0,0,48,construction neuve,13,logement familial,75013,48.82876030028736,2.382108919564762
2000372,74-90 RUE BARRAULT 11-17 RUE AUGUSTE LANCON,75013,Paris,2004,4,0,0,0,4,acquisition réhabilitation,13,logement familial,75013,48.82442263961949,2.3465534085741875
2000407,"ZAC CHATEAU DES RENTIERS 46-62, RUE DU CHATEAU DES RENTIERS LOT D1",75013,Paris,2004,39,0,0,0,39,construction neuve,13,logement familial,75013,48.82537895019053,2.369747020475337
2000414,"ZAC PRG LOT M3H1 27-33, RUE FRANCOISE DOLTO 9-13 RUE M.A. LAGROUA WEILL-HALLE",75013,Paris,2004,47,0,47,0,0,construction neuve,13,logement familial,75013,48.828274890347565,2.380257178573882
2000415,"15-23, AVENUE CLAUDE REGAUD / 49 BOUTROUX / 8 - 16 BEDIER / 6 YERSIN",75013,Paris,2004,15,0,15,0,0,construction neuve,13,logement familial,75013,48.82136722963405,2.3726653022473783
2000434,39 RUE BOBILLOT,75013,Paris,2004,4,4,0,0,0,acquisition réhabilitation,13,logement familial,75013,48.82875583955136,2.3534240476848525
2000299,ZAC PRG LOT M7B 42-56 RUE DU CHEVALERET,75013,Paris,2004,48,0,0,0,48,construction neuve,13,logement familial,75013,48.82867662006963,2.376550238638754
2000340,"20-26, RUE DE L'INTERNE LOEB 53, RUE DES PEUPLIERS",75013,Paris,2004,5,0,5,0,0,construction neuve,13,logement familial,75013,48.82198960000156,2.353916188373782
2000413,ZAC PRG LOT M3E1 13-25 RUE FRANCOISE DOLTO,75013,Paris,2004,76,0,76,0,0,construction neuve,13,logement familial,75013,48.82938225966569,2.382932962427729
2000298,"1, RUE DE BELLIEVRE,7-9 QUAI D'AUSTERLITZ",75013,Paris,2004,9,0,0,0,9,acquisition réhabilitation,13,logement familial,75013,48.83816781035095,2.37269844045032
2000441,"25, RUE JULES GUESDE",75014,Paris,2004,10,3,7,0,0,acquisition réhabilitation,14,logement familial,75014,48.836163269668695,2.3215009915852187
2000356,132 AVENUE DU MAINE,75014,Paris,2004,21,4,17,0,0,acquisition conventionnement,14,logement familial,75014,48.8351282197792,2.323639074546927
2000351,5 VILLA VIRGINIE,75014,Paris,2004,16,3,13,0,0,acquisition conventionnement,14,logement familial,75014,48.82412434042844,2.327181251592068
2000331,"47, RUE DU MOULIN VERT",75014,Paris,2004,1,1,0,0,0,acquisition réhabilitation,14,logement familial,75014,48.83054311022568,2.3214134773038047
2000319,6 VILLA MODERNE,75014,Paris,2004,23,0,23,0,0,construction neuve,14,logement familial,75014,48.83055921022295,2.3244128693774484
2000321,"74-76, RUE DAGUERRE 22-24, RUE DEPARCIEUX (LA BELIERE)",75014,Paris,2004,8,0,8,0,0,construction neuve,14,logement familial,75014,48.83550470028517,2.3256170693797067
2000405,6 IMPASSE FLORIMONT,75014,Paris,2004,4,4,0,0,0,acquisition réhabilitation,14,logement familial,75014,48.831518310192266,2.316222590485115
2000301,4 PASSAGE RIMBAUT 3 RUE THIBAUD,75014,Paris,2004,6,0,0,0,6,construction neuve,14,logement familial,75014,48.82945901017919,2.32727510467586
2000427,129 BIS RUE SAINT CHARLES (COUR),75015,Paris,2004,6,6,0,0,0,construction neuve,15,logement familial,75015,48.84395218966481,2.2833663175212298
2000412,80 BOULEVARD  DE GRENELLE,75015,Paris,2004,7,0,7,0,0,acquisition réhabilitation,15,logement familial,75015,48.85008909972469,2.293970536556751
2000312,"14, RUE DE LOURMEL",75015,Paris,2004,11,4,7,0,0,construction neuve,15,logement familial,75015,48.84996374020457,2.291652385419145
2000409,"68, RUE CASTAGNARY",75015,Paris,2004,5,5,0,0,0,construction neuve,15,logement familial,75015,48.83227769026485,2.3076673106549275
2000308,21 RUE DU GENERAL BEURET,75015,Paris,2004,4,0,4,0,0,acquisition réhabilitation,15,logement familial,75015,48.84068979975365,2.302516143553558
2000424,"3, IMPASSE DE L'ASTROLABE",75015,Paris,2004,4,2,2,0,0,acquisition réhabilitation,15,logement familial,75015,48.84417236030445,2.319217757488754
2000338,"193, RUE SAINT CHARLES",75015,Paris,2004,48,48,0,0,0,acquisition réhabilitation,15,foyer pour jeunes travailleurs ou résidence pour jeunes actifs,75015,48.84059189019528,2.280435925470673
2000423,"3, IMPASSE DE L'ASTROLABE",75015,Paris,2004,8,4,4,0,0,construction neuve,15,logement familial,75015,48.84417236030445,2.319217757488754
2000339,"193, RUE SAINT CHARLES",75015,Paris,2004,48,48,0,0,0,acquisition réhabilitation,15,résidence étudiante,75015,48.84059189019528,2.280435925470673
2000382,ZAC VAUGIRARD LOT C1 5-17 RUE DU COTENTIN,75015,Paris,2004,55,0,0,0,55,construction neuve,15,logement familial,75015,48.83873662979413,2.316046700187284
2000389,12 RUE MESNIL,75016,Paris,2004,23,4,15,0,4,acquisition conventionnement,16,logement familial,75016,48.86816838979356,2.2841970133952065
2000445,24 RUE DE LUBECK,75016,Paris,2004,22,0,22,0,0,acquisition réhabilitation,16,logement familial,75016,48.86535033025349,2.292076590469683
2000390,24 RUE DE LUBECK,75016,Paris,2004,18,9,0,0,9,acquisition réhabilitation,16,logement familial,75016,48.86535033025349,2.292076590469683
2000317,24 PLACE CHARLES FILLION,75017,Paris,2004,2,0,0,0,2,acquisition réhabilitation,17,logement familial,75017,48.8885571796989,2.315952386408324
2000330,"22, RUE DULONG",75017,Paris,2004,29,7,22,0,0,acquisition conventionnement,17,logement familial,75017,48.88410880014419,2.317534474329574
2000361,43 RUE BERZELIUS,75017,Paris,2004,11,0,0,0,11,acquisition réhabilitation,17,logement familial,75017,48.89421986973641,2.319534401168758
2000367,"14-14 BIS, RUE NOLLET",75017,Paris,2004,55,4,33,0,18,acquisition conventionnement,17,logement familial,75017,48.88539008984774,2.3239623561593
2000379,91 RUE DAMREMONT  BAT  D3,75018,Paris,2004,24,2,22,0,0,acquisition conventionnement,18,logement familial,75018,48.89407841029794,2.33650490367477
2000309,81-83 RUE DE LA CHAPELLE 1 ET 2 IMPASSE DU GUE,75018,Paris,2004,22,0,22,0,0,acquisition réhabilitation,18,logement familial,75018,48.89723891958698,2.358719292573244
2000429,"LOT 4 - 5BIS-10, IMPASSE ROBERT 3 IMP CALMELS 16 IMP GR. BOUTEILLE",75018,Paris,2004,19,0,0,0,19,construction neuve,18,logement familial,75018,48.89435471972249,2.338638563057491
2000421,"19, RUE AFFRE (HS)",75018,Paris,2004,7,7,0,0,0,construction neuve,18,logement familial,75018,48.88707241991276,2.3554144744263343
2000363,"55-57, RUE CHAMPIONNET - 3-5, PASSAGE CHAMPIONNET",75018,Paris,2004,3,0,3,0,0,acquisition réhabilitation,18,logement familial,75018,48.89564130998319,2.3472956390122977
2000392,"18-24, PASSAGE DUHESME",75018,Paris,2004,6,0,0,0,6,construction neuve,18,logement familial,75018,48.896018160202,2.347410367653908
2000314,85 RUE DAMREMONT BAT C,75018,Paris,2004,23,2,21,0,0,acquisition conventionnement,18,logement familial,75018,48.89380567965697,2.336314141135156
2000444,9 RUE DE LA GUADELOUPE,75018,Paris,2004,10,0,0,0,10,construction neuve,18,logement familial,75018,48.890638039969744,2.3618298966164764
2000362,8 PASSAGE DUHESME,75018,Paris,2004,1,0,0,0,1,construction neuve,18,logement familial,75018,48.89611028976506,2.346951015644632
2000307,45-47 RUE DUHESME,75018,Paris,2004,3,0,3,0,0,acquisition réhabilitation,18,logement familial,75018,48.89209748012537,2.340767584398051
2000313,97 RUE DAMREMONT  BAT E,75018,Paris,2004,32,3,29,0,0,acquisition conventionnement,18,logement familial,75018,48.8945508100154,2.336840716264254
2000422,"30, RUE AFFRE (HS)",75018,Paris,2004,5,0,5,0,0,acquisition réhabilitation,18,logement familial,75018,48.88710840956965,2.355571771480292
2000380,"17, RUE DU ROI D'ALGER  18-26, PASSAGE CHAMPIONNET",75018,Paris,2004,3,0,3,0,0,acquisition réhabilitation,18,logement familial,75018,48.89529247999788,2.347505066334917
2000364,"34, PASSAGE DUHESME -44, RUE CHAMPIONNET",75018,Paris,2004,4,0,4,0,0,acquisition réhabilitation,18,logement familial,75018,48.89577689969595,2.3482790123653903
2000435,"LOT 4 - 14, IMPASSE ROBERT 115 RUE CHAMPIONNET",75018,Paris,2004,6,0,0,0,6,construction neuve,18,logement familial,75018,48.89491122961325,2.339308651096952
2000355,19 RUE CAULAINCOURT,75018,Paris,2004,13,3,10,0,0,acquisition réhabilitation,18,logement familial,75018,48.8874131999415,2.33313138752021
2000376,"88, RUE MYRHA",75018,Paris,2004,10,0,0,0,10,acquisition réhabilitation,18,logement familial,75018,48.88651098007712,2.3487120204603182
2000311,"14-16, RUE FOREST ET 2-4 RUE CAVALLOTTI",75018,Paris,2004,42,0,42,0,0,construction neuve,18,résidence étudiante,75018,48.88573030987025,2.329068800104068
2000375,"17, RUE DU ROI D'ALGER  18-26, PASSAGE CHAMPIONNET",75018,Paris,2004,9,0,9,0,0,construction neuve,18,logement familial,75018,48.89529247999788,2.347505066334917
2000420,"14-18, RUE PIERRE BUDIN",75018,Paris,2004,19,2,0,0,17,construction neuve,18,logement familial,75018,48.889768809709125,2.3521523830692668
2000426,153 RUE CHAMPIONNET  BAT D1,75018,Paris,2004,42,4,38,0,0,acquisition réhabilitation,18,logement familial,75018,48.8950303698896,2.336638773397489
2000373,87 - 89 RUE DAMREMONT  BAT D4,75018,Paris,2004,56,6,50,0,0,acquisition conventionnement,18,logement familial,75018,48.89389167971063,2.336372174432639
2000348,"17 A 25, RUE PETIT - 5 PASSAGE DU NORD",75019,Paris,2004,24,0,0,0,24,construction neuve,19,logement familial,75019,48.88486775032991,2.381482274603997
2000344,"3, BD SERURIER 4-6 RUE DU LEMAN",75019,Paris,2004,6,0,6,0,0,construction neuve,19,logement familial,75019,48.87736400010601,2.406233445528714
2000310,"3, RUE DU RHIN 10-12, PASSAGE DU NORD",75019,Paris,2004,11,0,11,0,0,construction neuve,19,logement familial,75019,48.88514411966112,2.381149052334555
2000425,52-54 RUE RIQUET,75019,Paris,2004,105,0,0,0,105,construction neuve,19,résidence étudiante,75019,48.88950017040228,2.3701169064052223
2000365,41 BIS QUAI DE LA LOIRE - 157 RUE DE CRIMEE,75019,Paris,2004,165,0,0,0,165,acquisition réhabilitation,19,résidence étudiante,75019,48.88761148977728,2.379009768992234
2000401,"23-29, RUE DE NANTES",75019,Paris,2004,51,0,0,0,51,construction neuve,19,logement familial,75019,48.89189380976362,2.381852358413551
2000446,"9A ET 9B, RUE DE LUNEVILLE",75019,Paris,2004,50,0,0,0,50,construction neuve,19,résidence étudiante,75019,48.88646906027404,2.387561364578524
2000383,"64, RUE D'HAUTPOUL",75019,Paris,2004,9,0,0,0,9,acquisition réhabilitation,19,logement familial,75019,48.88554757958205,2.3870323742530344
2000393,21 RUE PAUL DE KOCK,75019,Paris,2004,1,1,0,0,0,acquisition conventionnement,19,logement familial,75019,48.87761713994741,2.3986842074874857
2000343,"3, BD SERURIER 4-6 RUE DU LEMAN",75019,Paris,2004,8,0,8,0,0,acquisition réhabilitation,19,logement familial,75019,48.87736400010601,2.406233445528714
2000371,"317, RUE DE BELLEVILLE",75019,Paris,2004,7,0,0,0,7,construction neuve,19,logement familial,75019,48.87656206006855,2.403756126676674
2000381,52-54 RUE RIQUET,75019,Paris,2004,49,0,49,0,0,construction neuve,19,foyer pour personnes handicapées,75019,48.88950017040228,2.3701169064052223
2000437,18 AVENUE DE FLANDRE,75019,Paris,2004,6,0,0,0,6,acquisition réhabilitation,19,logement familial,75019,48.88516784014574,2.3704193841663046
2000449,90 RUE DE  L'OURCQ,75019,Paris,2004,5,0,0,0,5,construction neuve,19,logement familial,75019,48.89372489024199,2.3744863624715005
2000300,97 RUE PETIT,75019,Paris,2004,54,0,0,0,54,acquisition conventionnement,19,logement familial,75019,48.88645247012795,2.3932370804008087
2000358,7 RUE BOURET,75019,Paris,2004,8,0,8,0,0,construction neuve,19,logement familial,75019,48.88082127994199,2.37573716227284
2000378,170 RUE DE CRIMEE,75019,Paris,2004,22,0,0,0,22,acquisition réhabilitation,19,logement familial,75019,48.88993416969812,2.3777142874520893
2000400,LOT 4  - 6-14 PASSAGE GOIX,75019,Paris,2004,56,0,0,0,56,construction neuve,19,logement familial,75019,48.88486902959648,2.366153090592229
2000342,"LOT J2 - 64, RUE DES VIGNOLES  - 54-58, RUE DE LA REUNION",75020,Paris,2004,4,0,4,0,0,acquisition réhabilitation,20,logement familial,75020,48.85524490962239,2.401561521484314
2000369,"VIGNOLES EST  5, PASSAGE SAVART",75020,Paris,2004,4,0,4,0,0,acquisition réhabilitation,20,logement familial,75020,48.85507814001658,2.403292344552064
2000368,"VIGNOLES EST  3, PASSAGE SAVART",75020,Paris,2004,3,0,3,0,0,construction neuve,20,logement familial,75020,48.85503140963004,2.4033563164706155
2000391,"PLANCHAT VIGNOLES (32-34, RUE TERRE NEUVE 11-37, RUE DES VIGNOLES) 2EME T.",75020,Paris,2004,44,0,0,0,44,construction neuve,20,logement familial,75020,48.85454129005378,2.398570932385069
2000374,"1 A 3, CITE AUBRY",75020,Paris,2004,13,0,13,0,0,construction neuve,20,logement familial,75020,48.85717172013891,2.3954400099924724
2000366,"VIGNOLES EST  79, RUE DES HAIES",75020,Paris,2004,2,2,0,0,0,acquisition réhabilitation,20,logement familial,75020,48.85490751026756,2.403491105279805
2000439,"4 BIS - 6, RUE DE LA COUR DES NOUES",75020,Paris,2004,64,0,0,0,64,construction neuve,20,résidence étudiante,75020,48.8638621698241,2.4031779093292984
2000323,39-41 RUE DES AMANDIERS,75020,Paris,2004,49,0,0,0,49,acquisition conventionnement,20,logement familial,75020,48.86444980960672,2.389355782039213
2000332,"61-63, RUE D'AVRON",75020,Paris,2004,105,0,55,0,50,construction neuve,20,logement familial,75020,48.85225874981921,2.403103826400604
2000354,154-156 RUE DE BELLEVILLE,75020,Paris,2004,47,0,0,0,47,acquisition conventionnement,20,logement familial,75020,48.8753831299812,2.390960406004365
2000428,"PLANCHAT VIGNOLES 1 26-28, RUE TERRE NEUVE 11-37, RUE DES VIGNOLES 7",75020,Paris,2004,44,11,33,0,0,construction neuve,20,logement familial,75020,48.85350883003335,2.3985396035154816
2000387,38-46 RUE DES MARAICHERS 1-13 RUE PHILIDOR,75020,Paris,2004,37,0,0,0,37,construction neuve,20,logement familial,75020,48.850523419806855,2.407536243157418
2000324,"91, RUE JULIEN LACROIX",75020,Paris,2004,4,0,4,0,0,construction neuve,20,logement familial,75020,48.87219495974847,2.3824165023560817
2000417,"PLANCHAT VIGNOLES 1 26-28, RUE TERRE NEUVE 11-37, RUE DES VIGNOLES 7",75020,Paris,2004,11,1,10,0,0,acquisition réhabilitation,20,logement familial,75020,48.85350883003335,2.3985396035154816
2000433,70 RUE DES VIGNOLES,75020,Paris,2004,2,2,0,0,0,acquisition conventionnement,20,logement familial,75020,48.85540978017015,2.40179414641292
2000451,"98, RUE RAMBUTEAU",75001,Paris,2005,4,2,2,0,0,acquisition réhabilitation,1,logement familial,75001,48.86251919007336,2.3481213805788355
2000523,3 RUE DES PROUVAIRES,75001,Paris,2005,2,0,2,0,0,acquisition réhabilitation,1,logement familial,75001,48.861435360355465,2.3440442681810207
2000473,15 RUE JEAN LANTIER,75001,Paris,2005,13,6,7,0,0,acquisition réhabilitation,1,logement familial,75001,48.858745070376656,2.345606020448081
2000482,29 RUE DE LA LUNE,75002,Paris,2005,2,2,0,0,0,acquisition réhabilitation,2,logement familial,75002,48.86979212040118,2.349354091564963
2000512,20-22 RUE BEAUREGARD,75002,Paris,2005,8,3,5,0,0,acquisition réhabilitation,2,logement familial,75002,48.86921301955399,2.3491005343790308
2000559,"17, RUE DU SENTIER",75002,Paris,2005,8,0,8,0,0,acquisition réhabilitation,2,logement familial,75002,48.86869923002987,2.3455960156641416
2000556,2-6 RUE PASTOURELLE 19-21 RUE CHARLOT,75003,Paris,2005,14,0,0,0,14,construction neuve,3,logement familial,75003,48.86187230961578,2.3611900742769643
2000576,"19, RUE AU MAIRE",75003,Paris,2005,10,3,7,0,0,acquisition réhabilitation,3,logement familial,75003,48.86458456972368,2.3564346151384155
2000516,61-63 RUE BEAUBOURG,75003,Paris,2005,8,4,4,0,0,acquisition réhabilitation,3,logement familial,75003,48.8630290099667,2.3542996852234457
2000518,"66-70, RUE REAUMUR",75003,Paris,2005,21,4,17,0,0,acquisition conventionnement,3,logement familial,75003,48.86615106993801,2.353395967157569
2000483,58 RUE QUINCAMPOIX,75004,Paris,2005,1,1,0,0,0,acquisition réhabilitation,4,logement familial,75004,48.86137549987438,2.350714336325656
2000591,"1 RUE DE TURENNE ET 74-76, RUE SAINT ANTOINE",75004,Paris,2005,11,4,7,0,0,acquisition réhabilitation,4,logement familial,75004,48.85320134991501,2.36798898728805
2000484,4-6 RUE DES ARENES,75005,Paris,2005,2,2,0,0,0,acquisition réhabilitation,5,logement familial,75005,48.84511219036296,2.35420644056254
2000575,"TERRAIN APHP-LAENNEC - 65-77, RUE VANEAU  4, IMPASSE OUDINOT",75007,Paris,2005,66,16,50,0,0,construction neuve,7,logement familial,75007,48.849954089736144,2.319919236560417
2000474,"21, RUE DU GENERAL BERTRAND",75007,Paris,2005,37,0,0,0,37,acquisition réhabilitation,7,établissement d'hébergement pour personnes âgées dépendantes,75007,48.84703361982628,2.313858982082684
2000452,1 RUE OUDINOT 58 RUE VANEAU (TERRAIN APHP-LAENNEC),75007,Paris,2005,10,0,10,0,0,construction neuve,7,logement familial,75007,48.85044115038244,2.3193982362139383
2000530,9-11 AVENUE BEAUCOUR,75008,Paris,2005,13,13,0,0,0,construction neuve,8,foyer pour jeunes travailleurs ou résidence pour jeunes actifs,75008,48.87726038027455,2.302337471358205
2000525,9-11 AVENUE BEAUCOUR,75008,Paris,2005,57,57,0,0,0,acquisition réhabilitation,8,foyer pour jeunes travailleurs ou résidence pour jeunes actifs,75008,48.87726038027455,2.302337471358205
2000598,"8, RUE FROMENTIN",75009,Paris,2005,43,9,22,0,12,acquisition réhabilitation,9,logement familial,75009,48.88247513026669,2.334703376464588
2000574,"11, RUE CADET",75009,Paris,2005,17,0,17,0,0,acquisition réhabilitation,9,logement familial,75009,48.87518790024709,2.343110197440122
2000586,"2, RUE ALBERT CAMUS",75010,Paris,2005,83,21,42,0,20,acquisition conventionnement,10,logement familial,75010,48.877786039936126,2.368534894977885
2000566,"4-8, BD DE DENAIN",75010,Paris,2005,43,3,11,0,29,acquisition conventionnement,10,logement familial,75010,48.87900190044248,2.3544818130890643
2000579,"16, AVENUE RICHERAND 47 BIS RUE BICHAT",75010,Paris,2005,17,8,9,0,0,acquisition réhabilitation,10,logement familial,75010,48.8724087496206,2.366541165406787
2000582,87 RUE DE MAUBEUGE,75010,Paris,2005,9,9,0,0,0,acquisition réhabilitation,10,logement familial,75010,48.88088762007524,2.3527984604532084
2000601,"2-8, RUE HITTORF",75010,Paris,2005,11,11,0,0,0,acquisition réhabilitation,10,logement familial,75010,48.87188156971454,2.3583468203279105
2000563,113 RUE DU FAUBOURG DU TEMPLE,75010,Paris,2005,2,0,0,0,2,construction neuve,10,logement familial,75010,48.87119300044307,2.374316854587029
2000594,"23, RUE VICQ D'AZIR",75010,Paris,2005,10,0,0,0,10,construction neuve,10,logement familial,75010,48.87619922954901,2.371200654462237
2000554,"14, RUE LUCIEN SAMPAIX",75010,Paris,2005,31,31,0,0,0,acquisition réhabilitation,10,maison relais,75010,48.87185078986371,2.360671948525064
2000597,"8, BD DE STRASBOURG",75010,Paris,2005,1,1,0,0,0,acquisition réhabilitation,10,logement familial,75010,48.87013344021791,2.3549458840483903
2000505,"27, RUE DE CHABROL",75010,Paris,2005,3,0,3,0,0,construction neuve,10,logement familial,75010,48.87669614987004,2.353879478611973
2000510,"23-25, RUE DE CHABROL",75010,Paris,2005,5,0,5,0,0,acquisition réhabilitation,10,logement familial,75010,48.87667651967996,2.3540245484716498
2000600,"2-8, RUE HITTORF",75010,Paris,2005,7,0,7,0,0,construction neuve,10,logement familial,75010,48.87188156971454,2.3583468203279105
2000583,126 RUE DE CHARONNE,75011,Paris,2005,4,4,0,0,0,acquisition réhabilitation,11,logement familial,75011,48.85501927992748,2.3869526935251075
2000478,26 RUE SAINT MAUR,75011,Paris,2005,18,0,0,0,18,construction neuve,11,logement familial,75011,48.86059125022426,2.381764597359266
2000602,"9, RUE AUGUSTE LAURENT",75011,Paris,2005,10,0,0,0,10,acquisition réhabilitation,11,logement familial,75011,48.87541473019744,2.358095713381715
2000503,"122, RUE DE CHARONNE",75011,Paris,2005,6,0,6,0,0,acquisition réhabilitation,11,logement familial,75011,48.85495335970259,2.386668790030459
2000480,54 RUE MERLIN,75011,Paris,2005,1,1,0,0,0,acquisition réhabilitation,11,logement familial,75011,48.86183315955355,2.3847296142547263
2000548,"124, RUE SAINT MAUR",75011,Paris,2005,5,0,5,0,0,construction neuve,11,logement familial,75011,48.8676273095584,2.37572073166672
2000479,106 RUE DU CHEMIN VERT,75011,Paris,2005,1,1,0,0,0,acquisition réhabilitation,11,logement familial,75011,48.861368190001095,2.3821954812300565
2000577,"83, RUE LEON FROT",75011,Paris,2005,16,5,11,0,0,acquisition réhabilitation,11,logement familial,75011,48.85782176959072,2.384271299490833
2000587,"56-58, RUE LEON FROT 3, RUE CARRIERE MAINGUET",75011,Paris,2005,15,0,15,0,0,acquisition réhabilitation,11,logement familial,75011,48.85635781006743,2.385961611610783
2000545,94 RUE DE CHARONNE,75011,Paris,2005,300,120,90,0,90,acquisition réhabilitation,11,résidence sociale pour démunis,75011,48.85401412984623,2.3827372712790336
2000506,"1-9 ET 2-8, CITE DE L'AVENIR",75011,Paris,2005,42,0,0,0,42,construction neuve,11,logement familial,75011,48.86577056997075,2.3836420095536743
2000521,"1-19 RUE VILLIOT, 30-40 QUAI DE LA RAPEE LOT 4",75012,Paris,2005,32,0,32,0,0,construction neuve,12,logement familial,75012,48.84099134980729,2.3738827803371287
2000519,"42, RUE DE CHALIGNY",75012,Paris,2005,21,2,19,0,0,acquisition conventionnement,12,logement familial,75012,48.84960080999819,2.384412439595742
2000481,241 RUE DE BERCY,75012,Paris,2005,1,1,0,0,0,acquisition réhabilitation,12,logement familial,75012,48.84721670998014,2.3687305492324637
2000528,23 RUE BECCARIA  12 PLACE D'ALIGRE,75012,Paris,2005,45,45,0,0,0,acquisition réhabilitation,12,foyer pour jeunes travailleurs ou résidence pour jeunes actifs,75012,48.84825726024567,2.378585551357808
2000458,37 RUE DE CITEAUX ET 1 PASSAGE BRULON,75012,Paris,2005,4,0,4,0,0,construction neuve,12,logement familial,75012,48.84949213019341,2.38101064952952
2000475,"16-16 BIS, RUE SIBUET",75012,Paris,2005,40,0,40,0,0,acquisition conventionnement,12,logement familial,75012,48.8421174199799,2.4023299023655675
2000459,"103 RUE CLAUDE DECAEN  - 41- 43, RUE DE LA BRECHE AUX LOUPS",75012,Paris,2005,13,0,0,0,13,construction neuve,12,logement familial,75012,48.83906102024777,2.3958251402072848
2000524,23 RUE BECCARIA  12 PLACE D'ALIGRE,75012,Paris,2005,23,0,0,0,23,acquisition réhabilitation,12,résidence étudiante,75012,48.84825726024567,2.378585551357808
2000472,"11-11BIS, CITE DEBERGUE",75012,Paris,2005,10,4,6,0,0,acquisition réhabilitation,12,logement familial,75012,48.845980019613805,2.404393988257163
2000522,"1-19 RUE VILLIOT, 30-40 QUAI DE LA RAPEE LOT 5",75012,Paris,2005,42,0,42,0,0,construction neuve,12,logement familial,75012,48.84099134980729,2.3738827803371287
2000501,106BIS-108 RUE DE PICPUS,75012,Paris,2005,63,0,63,0,0,construction neuve,12,logement familial,75012,48.83872939030695,2.401008105392662
2000486,243 RUE DE BERCY,75012,Paris,2005,1,1,0,0,0,acquisition réhabilitation,12,logement familial,75012,48.84728688012336,2.3686304276036165
2000529,"13, RUE DE LA LANCETTE",75012,Paris,2005,30,0,0,0,30,acquisition conventionnement,12,logement familial,75012,48.83727220981872,2.392532060174872
2000456,37 RUE DE CITEAUX ET 1 PASSAGE BRULON,75012,Paris,2005,9,0,9,0,0,acquisition réhabilitation,12,logement familial,75012,48.84949213019341,2.38101064952952
2000455,"66-70, RUE CROZATIER 2-10, PASSAGE BRULON 39- 41, RUE DE CITEAUX",75012,Paris,2005,12,0,0,0,12,construction neuve,12,logement familial,75012,48.84975358031308,2.379510810239984
2000471,6 CITE DEBERGUE,75012,Paris,2005,2,0,0,0,2,acquisition réhabilitation,12,logement familial,75012,48.84592075012946,2.404470551323854
2000490,9 CITE DU RENDEZ VOUS  10 CITE DEBERGUE,75012,Paris,2005,5,5,0,0,0,acquisition réhabilitation,12,logement familial,75012,48.84544057964349,2.404138352130257
2000558,39 ET 41 RUE DU MOULIN DE LA POINTE 10-12 ET 15 RUE BOURGON,75013,Paris,2005,9,9,0,0,0,acquisition réhabilitation,13,logement familial,75013,48.82304468039939,2.356643394492651
2000560,79-81 RUE DU CHATEAU DES RENTIERS- LOT A2,75013,Paris,2005,23,0,4,0,19,construction neuve,13,logement familial,75013,48.82663393011413,2.3688047525225877
2000493,"ZAC PRG LOT M1F1 14-16 RUE THOMAS MANN 11, RUE RENE GOSCINNY",75013,Paris,2005,23,0,23,0,0,construction neuve,13,logement familial,75013,48.83015794999378,2.3802864335318903
2000542,"5, QUAI D'AUSTERLITZ - 2, RUE GIFFARD",75013,Paris,2005,11,0,0,0,11,acquisition réhabilitation,13,logement familial,75013,48.83792700955423,2.372995614651704
2000546,"ZAC PRG LOT M3E2  13-25, RUE FRANCOISE DOLTO -  7-11, RUE ELSA MORANTE",75013,Paris,2005,64,0,0,0,64,construction neuve,13,logement familial,75013,48.8288021302056,2.381550420184176
2000565,61 BOULEVARD SAINT JACQUES,75014,Paris,2005,124,0,124,0,0,acquisition réhabilitation,14,résidence étudiante,75014,48.83296585974765,2.335569541078905
2000567,"25-27, RUE DE LA GAITE",75014,Paris,2005,7,0,7,0,0,construction neuve,14,logement familial,75014,48.8398060700702,2.3237846532199877
2000562,"21, RUE BENARD",75014,Paris,2005,20,20,0,0,0,acquisition réhabilitation,14,résidence sociale pour démunis,75014,48.83143416000969,2.3227106715220023
2000570,"25-27, RUE DE LA GAITE",75014,Paris,2005,20,20,0,0,0,construction neuve,14,maison relais,75014,48.8398060700702,2.3237846532199877
2000584,"13-17, RUE DAREAU",75014,Paris,2005,52,0,52,0,0,construction neuve,14,résidence étudiante,75014,48.83137401036664,2.3381782583557635
2000469,FOYER BALARD - 22-24 RUE BALARD 2 RUE DES CEVENNES,75015,Paris,2005,112,0,56,0,56,acquisition conventionnement,15,logement familial,75015,48.84368018967156,2.277192720546428
2000513,"72, RUE CASTAGNARY 2, RUE DE L'HARMONIE",75015,Paris,2005,10,10,0,0,0,construction neuve,15,logement familial,75015,48.8321089299661,2.307476431340911
2000599,44 RUE DE LA FEDERATION,75015,Paris,2005,6,6,0,0,0,acquisition réhabilitation,15,logement familial,75015,48.85385664020124,2.293715317136811
2000491,4-6 VILLA DE L'ASTROLABE,75015,Paris,2005,3,3,0,0,0,acquisition réhabilitation,15,logement familial,75015,48.84420950031024,2.319063026021693
2000573,"108, RUE BRANCION",75015,Paris,2005,11,4,7,0,0,acquisition réhabilitation,15,logement familial,75015,48.82976946963067,2.3016818642231165
2000468,33 RUE VICTOR DURUY,75015,Paris,2005,30,3,27,0,0,acquisition conventionnement,15,logement familial,75015,48.83639427004478,2.300188750624035
2000561,"45, RUE SEBASTIEN MERCIER",75015,Paris,2005,13,4,9,0,0,acquisition réhabilitation,15,logement familial,75015,48.8437696499684,2.2802681694286697
2000555,346 RUE LECOURBE,75015,Paris,2005,5,5,0,0,0,acquisition réhabilitation,15,logement familial,75015,48.83702007992683,2.2838086362422456
2000595,22-24 RUE BALARD 2 RUE DES CEVENNES,75015,Paris,2005,156,156,0,0,0,acquisition réhabilitation,15,foyer pour jeunes travailleurs ou résidence pour jeunes actifs,75015,48.84368339017265,2.2772106734412128
2000488,7 VILLA DE L'ASTROLABE,75015,Paris,2005,6,6,0,0,0,acquisition réhabilitation,15,logement familial,75015,48.84398031032785,2.319338882393455
2000502,"16, RUE EUGENE MILLION",75015,Paris,2005,17,1,8,0,8,construction neuve,15,logement familial,75015,48.83783170000355,2.2927391153292995
2000585,"16-26, RUE DU HAMEAU",75015,Paris,2005,176,18,87,0,71,acquisition conventionnement,15,logement familial,75015,48.83494623998424,2.288623165322643
2000497,"403 BIS, RUE DE VAUGIRARD",75015,Paris,2005,1,1,0,0,0,acquisition réhabilitation,15,logement familial,75015,48.8331269802793,2.289224789357687
2000470,24 RUE DE LUBECK,75016,Paris,2005,2,0,2,0,0,construction neuve,16,logement familial,75016,48.86535033025349,2.292076590469683
2000467,27 BOULEVARD BESSIERES,75017,Paris,2005,45,0,0,0,45,acquisition réhabilitation,17,résidence étudiante,75017,48.897369870398,2.325891411216049
2000477,"20, RUE LECLUSE",75017,Paris,2005,40,40,0,0,0,acquisition réhabilitation,17,foyer pour jeunes travailleurs ou résidence pour jeunes actifs,75017,48.8845991601571,2.325256790377986
2000500,"150, BD PEREIRE",75017,Paris,2005,22,10,12,0,0,acquisition réhabilitation,17,logement familial,75017,48.88341877011687,2.2938662470952504
2000526,14-16 RUE HELENE,75017,Paris,2005,1,1,0,0,0,acquisition réhabilitation,17,logement familial,75017,48.88628318013867,2.324648207491231
2000494,"13, RUE BIOT",75017,Paris,2005,18,18,0,0,0,acquisition réhabilitation,17,foyer pour jeunes travailleurs ou résidence pour jeunes actifs,75017,48.884395750160685,2.3259867490822663
2000464,2-42 AV DE LA PORTE DES POISSONNIERS 78-80 BD NEY,75018,Paris,2005,243,0,243,0,0,construction neuve,18,résidence étudiante,75018,48.88565153959553,2.3499233763703486
2000496,"20, RUE DU NORD",75018,Paris,2005,4,0,0,0,4,acquisition réhabilitation,18,logement familial,75018,48.8929027298032,2.3511322333106617
2000507,"4, RUE DU CANADA",75018,Paris,2005,6,0,0,0,6,acquisition réhabilitation,18,logement familial,75018,48.890164200155965,2.362627681339156
2000553,44 RUE MARCADET,75018,Paris,2005,6,0,6,0,0,construction neuve,18,logement familial,75018,48.89059959001314,2.351043829122018
2000552,14 RUE MARCADET,75018,Paris,2005,10,0,10,0,0,acquisition réhabilitation,18,logement familial,75018,48.89040910001432,2.3537383614070744
2000581,"9, RUE VERON",75018,Paris,2005,10,4,6,0,0,acquisition réhabilitation,18,logement familial,75018,48.88445832023187,2.336549475543633
2000532,26 RUE D'ORAN,75018,Paris,2005,3,0,3,0,0,acquisition réhabilitation,18,logement familial,75018,48.88907218039687,2.3525387906329223
2000517,"144, RUE DES POISSONNIERS",75018,Paris,2005,71,71,0,0,0,construction neuve,18,foyer pour jeunes travailleurs ou résidence pour jeunes actifs,75018,48.89702648044135,2.352918980398546
2000540,4 A 10 RUE EMILE DUPLOYE LOT 3,75018,Paris,2005,18,0,18,0,0,construction neuve,18,logement familial,75018,48.88919248996335,2.3556313483303
2000564,"75-83, RUE DE LA CHAPELLE , 1 ET 2 IMPASSE DU GUE",75018,Paris,2005,44,14,0,0,30,construction neuve,18,logement familial,75018,48.89680353001205,2.3587538434779733
2000538,"136, RUE DU MONT CENIS",75018,Paris,2005,3,0,3,0,0,construction neuve,18,logement familial,75018,48.8976106900225,2.3472268470465267
2000541,15-17 RUE EMILE DUPLOYE,75018,Paris,2005,6,0,6,0,0,construction neuve,18,logement familial,75018,48.889310089875536,2.355162377291834
2000588,5BIS ET 7 PASSAGE PENEL  92-94 RUE CHAMPIONNET,75018,Paris,2005,9,0,9,0,0,construction neuve,18,logement familial,75018,48.895965620203086,2.3426223193819427
2000536,"EMILE DUPLOYE LOT 5 - 6, RUE ERNESTINE",75018,Paris,2005,8,0,8,0,0,construction neuve,18,logement familial,75018,48.88898177971304,2.354630696425664
2000544,70 RUE DES POISSONNIERS,75018,Paris,2005,27,27,0,0,0,acquisition réhabilitation,18,foyer pour jeunes travailleurs ou résidence pour jeunes actifs,75018,48.89076033018858,2.35162464153092
2000551,"80, BD BARBES",75018,Paris,2005,18,0,18,0,0,acquisition réhabilitation,18,logement familial,75018,48.89002845962077,2.349819116510675
2000511,17 RUE PAJOL (LOT 3),75018,Paris,2005,12,0,12,0,0,acquisition réhabilitation,18,logement familial,75018,48.88590672038886,2.360731138387521
2000515,"25, RUE CUSTINE 65 RUE LABAT",75018,Paris,2005,25,6,13,0,6,acquisition réhabilitation,18,logement familial,75018,48.88875009040181,2.346320507135922
2000535,19-23 RUE EMILE DUPLOYE  -LOT 7A,75018,Paris,2005,9,0,9,0,0,construction neuve,18,logement familial,75018,48.88948580960358,2.355136971665951
2000578,"63, RUE LAMARCK",75018,Paris,2005,13,6,7,0,0,acquisition réhabilitation,18,logement familial,75018,48.89000225981773,2.3378514941685555
2000514,119 RUE DU MONT CENIS,75018,Paris,2005,8,0,8,0,0,acquisition réhabilitation,18,logement familial,75018,48.895405789812784,2.3458442386338554
2000549,"9 RUE DE LA GOUTTE D'OR - 10-14, RUE DE LA CHARBONNIERE",75018,Paris,2005,12,0,12,0,0,construction neuve,18,logement familial,75018,48.88475655002132,2.3549910864337016
2000531,29 RUE POLONCEAU,75018,Paris,2005,6,0,6,0,0,acquisition réhabilitation,18,logement familial,75018,48.88581043015244,2.3523929565804376
2000537,"48, RUE DE LA GOUTTE D'OR  (COUR)",75018,Paris,2005,25,0,25,0,0,acquisition réhabilitation,18,résidence étudiante,75018,48.88519712978044,2.3506406323486955
2000543,48 RUE MYRHA (HS),75018,Paris,2005,5,0,5,0,0,construction neuve,18,logement familial,75018,48.88700296999061,2.352377496461836
2000465,2-42 AVENUE DE LA PORTE DES POISSONNIERS (APHP),75018,Paris,2005,89,0,0,0,89,construction neuve,18,logement familial,75018,48.88565153959553,2.3499233763703486
2000495,"43, RUE DU NORD",75018,Paris,2005,2,0,2,0,0,construction neuve,18,logement familial,75018,48.893115589867456,2.349673258453049
2000520,"143, RUE DE CLIGNANCOURT",75018,Paris,2005,25,10,15,0,0,acquisition réhabilitation,18,logement familial,75018,48.8951346902126,2.3493775764365648
2000550,"28, RUE POULET",75018,Paris,2005,18,6,12,0,0,acquisition réhabilitation,18,logement familial,75018,48.88769323004713,2.3504702113607063
2000499,"24 RUE DU NORD - 23, RUE EMILE CHAINE",75018,Paris,2005,2,0,0,0,2,construction neuve,18,logement familial,75018,48.89310307018277,2.350974968117882
2000533,"52-58, RUE MYRHA",75018,Paris,2005,21,0,21,0,0,construction neuve,18,logement familial,75018,48.88697211976334,2.35217289847216
2000547,"22-24-26, PASSAGE DU MONT CENIS",75018,Paris,2005,8,0,8,0,0,construction neuve,18,logement familial,75018,48.89724699001842,2.3455983616251417
2000596,5BIS ET 7 PASSAGE PENEL  92-94 RUE CHAMPIONNET,75018,Paris,2005,2,0,2,0,0,acquisition réhabilitation,18,logement familial,75018,48.895965620203086,2.3426223193819427
2000590,"HOPITAL HEROLD (APHP) 7, PLACE RHIN ET DANUBE 123 BIS BD SERURIER",75019,Paris,2005,80,10,20,0,50,construction neuve,19,logement familial,75019,48.88218535995558,2.3934852651197422
2000527,92 RUE DE ROMAINVILLE,75019,Paris,2005,2,2,0,0,0,acquisition réhabilitation,19,logement familial,75019,48.87691035042542,2.40476588231297
2000454,181 AV JEAN JAURES,75019,Paris,2005,10,0,5,0,5,acquisition réhabilitation,19,logement familial,75019,48.88780542986079,2.388745945132836
2000457,"19, PASSAGE DU NORD",75019,Paris,2005,10,0,0,0,10,acquisition réhabilitation,19,logement familial,75019,48.88490632014344,2.381994216090067
2000453,234-236 BD DE LA VILLETTE,75019,Paris,2005,14,0,14,0,0,construction neuve,19,logement familial,75019,48.88448034042383,2.366092611536269
2000463,"4-4 BIS RUE DE L'ORME - 27, RUE DE ROMAINVILLE",75019,Paris,2005,35,0,0,0,35,acquisition conventionnement,19,logement familial,75019,48.87761212020485,2.400394771627298
2000498,"FOYER DE LA COMMANDERIE 15-21, BD DE LA COMMANDERIE",75019,Paris,2005,400,400,0,0,0,construction neuve,19,foyer de travailleurs migrants,75019,48.901739030288326,2.3851525744529685
2000593,"136 - 138, BD DE LA VILLETTE",75019,Paris,2005,7,0,0,0,7,construction neuve,19,logement familial,75019,48.8787602604464,2.370573118072316
2000461,"13, RUE BELLOT",75019,Paris,2005,4,0,0,0,4,construction neuve,19,logement familial,75019,48.88616637020819,2.367023883132792
2000589,"164-168, BD DE LA VILLETTE ET 8-14 CITE LEPAGE",75019,Paris,2005,30,0,0,0,30,construction neuve,19,logement familial,75019,48.88051210992151,2.37053479422561
2000466,"55, RUE COMPANS",75019,Paris,2005,15,0,0,0,15,acquisition réhabilitation,19,logement familial,75019,48.87889158981352,2.392429380454572
2000462,"72, RUE JULIEN LACROIX 24 RUE LESAGE",75020,Paris,2005,10,0,0,0,10,acquisition réhabilitation,20,logement familial,75020,48.87231483990939,2.3825478701107388
2000580,"74, RUE DES HAIES",75020,Paris,2005,17,0,0,0,17,acquisition réhabilitation,20,résidence étudiante,75020,48.85462750043652,2.4032224381933447
2000572,"72, RUE DES HAIES",75020,Paris,2005,47,0,0,0,47,construction neuve,20,résidence étudiante,75020,48.85457922960733,2.403182745455549
2000571,"11-13, RUE HOUDART",75020,Paris,2005,19,4,10,0,5,construction neuve,20,logement familial,75020,48.86391628030788,2.3877060373755974
2000460,"71, RUE DE LA PLAINE",75020,Paris,2005,20,0,10,0,10,construction neuve,20,logement familial,75020,48.85035351963051,2.4050222586216896
2000508,18-18 BIS RUE DE LA MARE ET 23 RUE HENRI CHEVREAU,75020,Paris,2005,4,0,0,0,4,construction neuve,20,logement familial,75020,48.86973537030404,2.388892661519789
2000492,30 RUE ET 3 VILLA DE L'ERMITAGE,75020,Paris,2005,1,0,0,0,1,construction neuve,20,logement familial,75020,48.87037822976593,2.39202079565954
2000534,"15-17, RUE JULIEN LACROIX",75020,Paris,2005,8,2,6,0,0,construction neuve,20,logement familial,75020,48.8688105903214,2.385860953115233
2000539,"21, RUE BISSON",75020,Paris,2005,29,0,29,0,0,construction neuve,20,résidence étudiante,75020,48.87067491998588,2.380694455112532
2000487,109-111 RUE DE MENILMONTANT,75020,Paris,2005,16,0,0,0,16,acquisition réhabilitation,20,résidence étudiante,75020,48.86933213004074,2.39219571850461
2000504,"142, RUE PELLEPORT",75020,Paris,2005,7,0,7,0,0,acquisition réhabilitation,20,logement familial,75020,48.8715163303353,2.39872010408411
2000509,18-18 BIS RUE DE LA MARE ET 23 RUE HENRI CHEVREAU,75020,Paris,2005,10,0,0,0,10,acquisition réhabilitation,20,logement familial,75020,48.86973537030404,2.388892661519789
2000557,"21-25, RUE RAMPONEAU",75020,Paris,2005,20,0,20,0,0,construction neuve,20,logement familial,75020,48.87129401024991,2.3799317242267035
2000568,"34-36, RUE ALPHONSE PENAUD",75020,Paris,2005,4,0,0,0,4,construction neuve,20,logement familial,75020,48.86854978978031,2.4065565745167827
2000569,"2-4, RUE DES PANOYAUX -124 A 130, BD DE MENILMONTANT",75020,Paris,2005,18,0,18,0,0,construction neuve,20,résidence étudiante,75020,48.86613254013176,2.3843900583227864
2000592,"21, RUE BISSON",75020,Paris,2005,10,0,0,0,10,construction neuve,20,logement familial,75020,48.87067491998588,2.380694455112532
2000476,109-111 RUE DE MENILMONTANT,75020,Paris,2005,49,0,0,0,49,construction neuve,20,résidence étudiante,75020,48.86933213004074,2.39219571850461
2000489,30 RUE ET 3 VILLA DE L'ERMITAGE,75020,Paris,2005,17,0,10,0,7,acquisition réhabilitation,20,logement familial,75020,48.87037822976593,2.39202079565954
2000485,"VIGNOLES EST  83-91, RUE DES HAIES",75020,Paris,2005,47,0,0,0,47,construction neuve,20,logement familial,75020,48.85502617956664,2.403699220501561
2000693,"6, RUE DU CROISSANT",75002,Paris,2006,3,3,0,0,0,construction neuve,2,logement familial,75002,48.86868113983595,2.345134960602459
2000751,"6, RUE DES JEUNEURS",75002,Paris,2006,22,0,22,0,0,construction neuve,2,logement familial,75002,48.86896023994559,2.347261838443081
2000618,"13, BD SAINT DENIS",75002,Paris,2006,15,7,8,0,0,acquisition réhabilitation,2,logement familial,75002,48.86926458002729,2.3537445942741124
2000619,"34, RUE DU GRENIER SAINT LAZARE",75003,Paris,2006,8,4,4,0,0,acquisition réhabilitation,3,logement familial,75003,48.86320244001813,2.3528218804362675
2000720,"114 RUE DU TEMPLE 23-27, RUE PASTOURELLE",75003,Paris,2006,18,0,18,0,0,acquisition réhabilitation,3,foyer pour personnes handicapées,75003,48.8628709003291,2.3579410723548704
2000712,"66, RUE DE TURBIGO",75003,Paris,2006,6,2,4,0,0,acquisition conventionnement,3,logement familial,75003,48.86603308032984,2.3590614340091034
2000634,"38, BD HENRI IV",75004,Paris,2006,15,5,10,0,0,construction neuve,4,logement familial,75004,48.85216880971208,2.366369569215165
2000731,5 RUE GEOFFROY L'ANGEVIN,75004,Paris,2006,9,9,0,0,0,acquisition réhabilitation,4,résidence sociale pour démunis,75004,48.86059520005813,2.3542996033052948
2000656,58 RUE DE L'HOTEL DE VILLE,75004,Paris,2006,9,4,5,0,0,acquisition réhabilitation,4,logement familial,75004,48.85452896970466,2.355489501223345
2000614,54 RUE DU ROI DE SICILE,75004,Paris,2006,15,15,0,0,0,acquisition réhabilitation,4,résidence sociale pour démunis,75004,48.85663207031897,2.3571204143243523
2000649,10 RUE XAVIER PRIVAS,75005,Paris,2006,8,0,8,0,0,acquisition réhabilitation,5,logement familial,75005,48.852880959893966,2.3455379593638432
2000708,40 RUE D'ULM,75005,Paris,2006,17,3,6,0,8,acquisition conventionnement,5,logement familial,75005,48.842745470185136,2.344311247551862
2000707,51 RUE CLAUDE BERNARD,75005,Paris,2006,14,2,5,0,7,acquisition conventionnement,5,logement familial,75005,48.84042111983089,2.34539576558048
2000723,"21, RUE GALANDE ET 2 RUE DES ANGLAIS",75005,Paris,2006,29,5,24,0,0,acquisition conventionnement,5,logement familial,75005,48.85106652972055,2.3479275316102868
2000632,"76, RUE DE RENNES",75006,Paris,2006,45,0,15,0,30,acquisition réhabilitation,6,logement familial,75006,48.851278609878825,2.330647916327157
2000633,"17, RUE DU FOUR 1-3 RUE PRINCESSE",75006,Paris,2006,15,7,8,0,0,construction neuve,6,logement familial,75006,48.85268863992348,2.334632864297577
2000711,"67, AVENUE DE BRETEUIL",75007,Paris,2006,22,4,13,0,5,acquisition conventionnement,7,logement familial,75007,48.84790130033876,2.3121970031556884
2000636,"39-41, RUE DE ROME",75008,Paris,2006,10,0,10,0,0,acquisition réhabilitation,8,logement familial,75008,48.87761292989045,2.3226958952260843
2000710,"11 BIS, RUE DE MOSCOU",75008,Paris,2006,12,4,8,0,0,acquisition conventionnement,8,logement familial,75008,48.88033802038304,2.3253972485371164
2000631,"15, RUE DUPERRE",75009,Paris,2006,27,0,27,0,0,acquisition réhabilitation,9,foyer pour jeunes travailleurs ou résidence pour jeunes actifs,75009,48.881981550405385,2.335510235444884
2000738,"21, RUE CONDORCET",75009,Paris,2006,15,3,12,0,0,acquisition conventionnement,9,logement familial,75009,48.87959696024833,2.346161165659855
2000715,"57, RUE JEAN BAPTISTE PIGALLE",75009,Paris,2006,28,5,14,0,9,acquisition conventionnement,9,logement familial,75009,48.88084943042043,2.335527953318175
2000746,"16, CITE TREVISE",75009,Paris,2006,6,0,6,0,0,acquisition conventionnement,9,logement familial,75009,48.87497620043456,2.3470585712779504
2000650,"36, RUE DE L'AQUEDUC",75010,Paris,2006,6,0,0,0,6,acquisition réhabilitation,10,logement familial,75010,48.88220601996389,2.363716977568356
2000742,"34, RUE DE PARADIS",75010,Paris,2006,11,4,7,0,0,acquisition conventionnement,10,logement familial,75010,48.87531142014796,2.351294730387703
2000695,"25-27, RUE CHAUDRON",75010,Paris,2006,15,4,11,0,0,construction neuve,10,logement familial,75010,48.88346181990653,2.364839189483253
2000709,"10, RUE DE LA ROQUETTE",75011,Paris,2006,3,0,3,0,0,acquisition conventionnement,11,logement familial,75011,48.85352911003876,2.370668595478698
2000660,2 PASSAGE LOUIS PHILIPPE,75011,Paris,2006,2,0,2,0,0,construction neuve,11,logement familial,75011,48.85388179971245,2.3728518554494475
2000721,47 RUE SEDAINE,75011,Paris,2006,12,0,12,0,0,construction neuve,11,logement familial,75011,48.85718364002911,2.375066750500635
2000613,107-109 RUE DE MONTREUIL,75011,Paris,2006,6,0,0,0,6,construction neuve,11,logement familial,75011,48.850799260045385,2.394949576061024
2000753,148 BD VOLTAIRE (BAT A),75011,Paris,2006,10,0,0,0,10,acquisition conventionnement,11,logement familial,75011,48.856374990293446,2.3821877263802707
2000752,"88- 90, RUE DE LA FONTAINE AU ROI - 7, RUE DE VAUCOULEURS",75011,Paris,2006,46,0,0,0,46,construction neuve,11,résidence étudiante,75011,48.86903893023401,2.377231027236804
2000760,"91- 95, RUE DE LA FONTAINE AU ROI - 23 RUE DU MOULIN JOLY",75011,Paris,2006,62,0,0,0,62,construction neuve,11,résidence étudiante,75011,48.86944187963088,2.377752004185121
2000638,1-11 RUE MERLIN,75011,Paris,2006,79,0,79,0,0,acquisition conventionnement,11,logement familial,75011,48.859484789560966,2.385931164299781
2000737,"105, AVENUE DE LA REPUBLIQUE",75011,Paris,2006,18,0,9,0,9,acquisition conventionnement,11,logement familial,75011,48.86318628994569,2.386280582585292
2000696,3 IMPASSE DES PRIMEVERES,75011,Paris,2006,3,3,0,0,0,construction neuve,11,logement familial,75011,48.85879531007559,2.369330756580323
2000673,"13-15, RUE CHARRIERE",75011,Paris,2006,12,0,12,0,0,construction neuve,11,logement familial,75011,48.85284011014231,2.3821041075988374
2000658,2 PASSAGE LOUIS PHILIPPE,75011,Paris,2006,4,0,4,0,0,acquisition réhabilitation,11,logement familial,75011,48.85388179971245,2.3728518554494475
